# 
# Header Description:
# 
# Version: v2.0.0.1 Platform: 8.1.0 Manufacturer: Xiaomi Model: MI 8 Pro
# 
# Raw,ElapsedRealtimeMillis,TimeNanos,LeapSecond,TimeUncertaintyNanos,FullBiasNanos,BiasNanos,BiasUncertaintyNanos,DriftNanosPerSecond,DriftUncertaintyNanosPerSecond,HardwareClockDiscontinuityCount,Svid,TimeOffsetNanos,State,ReceivedSvTimeNanos,ReceivedSvTimeUncertaintyNanos,Cn0DbHz,PseudorangeRateMetersPerSecond,PseudorangeRateUncertaintyMetersPerSecond,AccumulatedDeltaRangeState,AccumulatedDeltaRangeMeters,AccumulatedDeltaRangeUncertaintyMeters,CarrierFrequencyHz,CarrierCycles,CarrierPhase,CarrierPhaseUncertainty,MultipathIndicator,SnrInDb,ConstellationType,AgcDb,CarrierFrequencyHz
# 
# Fix,Provider,Latitude,Longitude,Altitude,Speed,Accuracy,(UTC)TimeInMs
# 
# Nav,Svid,Type,Status,MessageId,Sub-messageId,Data(Bytes)
# 
Raw,1112756,66769000000,,,-1238850265230583210,0.0,19.365429476761438,,,0,2,0.0,16431,219931923240289,70,18.321128845214844,-145.62530487099025,1.1253533214481601,4,-8817.598003401175,3.4028234663852886E38,1.57542003E9,,,,0,,1,,1.57542003E9
Raw,1112757,66769000000,,,-1238850265230583210,0.0,19.365429476761438,,,0,6,0.0,16431,219931920921371,91,15.130966186523438,175.23851182873625,1.271991759291594,4,11438.216993945305,3.4028234663852886E38,1.57542003E9,,,,1,,1,,1.57542003E9
Raw,1112757,66769000000,,,-1238850265230583210,0.0,19.365429476761438,,,0,12,0.0,16431,219931930667799,61,20.054779052734375,252.83886326181664,1.048729169320497,4,15078.431708514987,3.4028234663852886E38,1.57542003E9,,,,0,,1,,1.57542003E9
Raw,1112757,66769000000,,,-1238850265230583210,0.0,19.365429476761438,,,0,14,0.0,51,3613669,78,16.9675350189209,-192.29696877191373,1.1862900910190293,4,-11684.820956943247,3.4028234663852886E38,1.57542003E9,,,,1,,1,,1.57542003E9
Raw,1112758,66769000000,,,-1238850265230583210,0.0,19.365429476761438,,,0,19,0.0,16,13747185,1000000000,7.0,692.296898863412,2.99792458E8,4,1264.2746477950045,3.4028234663852886E38,1.57542003E9,,,,0,,1,,1.57542003E9
Raw,1112758,66769000000,,,-1238850265230583210,0.0,19.365429476761438,,,0,24,0.0,16431,219931923591427,10,41.431156158447266,567.2251111094884,0.0015411252388730645,1,37521.57000033542,7.705626194365323E-4,1.57542003E9,,,,0,,1,,1.57542003E9
Raw,1112758,66769000000,,,-1238850265230583210,0.0,19.365429476761438,,,0,25,0.0,16431,219931931151585,41,24.834674835205078,-177.74787230037145,0.00981941632926464,1,-11566.813669475103,0.00490970816463232,1.57542003E9,,,,0,,1,,1.57542003E9
Raw,1112758,66769000000,,,-1238850265230583210,0.0,19.365429476761438,,,0,29,0.0,16431,219931928324247,32,28.118356704711914,-542.5090707202035,0.006728241220116615,1,-35819.27054955718,0.09851095700924074,1.57542003E9,,,,0,,1,,1.57542003E9
Raw,1112758,66769000000,,,-1238850265230583210,0.0,19.365429476761438,,,0,31,0.0,39,1920023923,105,13.337711334228516,-662.7735843847449,1.3524710899096126,4,-40824.35930802679,3.4028234663852886E38,1.57542003E9,,,,1,,1,,1.57542003E9
Raw,1112759,66769000000,,,-1238850265230583210,0.0,19.365429476761438,,,0,32,0.0,16430,219931924865067,1000000000,21.6295166015625,68.19274137137165,2.99792458E8,4,3414.7988107846318,3.4028234663852886E38,1.57542003E9,,,,1,,1,,1.57542003E9
Raw,1112759,66769000000,,,-1238850265230583210,0.0,19.365429476761438,,,0,6,0.0,16408,219931920921453,1000000000,16.888202667236328,175.5899189967147,2.99792458E8,4,31821.084395006143,3.4028234663852886E38,1.17645005E9,,,,0,,1,,1.17645005E9
Raw,1112759,66769000000,,,-1238850265230583210,0.0,19.365429476761438,,,0,24,0.0,16409,219931923591446,22,27.795503616333008,567.1886968763138,0.009351195767521856,1,103426.33159697152,0.004675597883760929,1.17645005E9,,,,1,,1,,1.17645005E9
Raw,1112759,66769000000,,,-1238850265230583210,0.0,19.365429476761438,,,0,25,0.0,16409,219931931151567,34,24.197511672973633,-177.74934652256343,0.01415033545345068,1,-23341.594340528718,0.00707516772672534,1.17645005E9,,,,0,,1,,1.17645005E9
Raw,1112759,66769000000,,,-1238850265230583210,0.0,19.365429476761438,,,0,32,0.0,16,4865150,1000000000,16.123878479003906,67.12895121776756,2.99792458E8,4,14394.218946057343,3.4028234663852886E38,1.17645005E9,,,,0,,1,,1.17645005E9
Raw,1112760,66769000000,,,-1238850265230583210,0.0,19.365429476761438,,,0,10,0.0,32995,57913934204092,249,11.285444259643555,97.94965700704608,1.4437122224439003,4,6137.699678199541,3.4028234663852886E38,1.59806246E9,,,,1,,3,,1.59806246E9
Raw,1112760,66769000000,,,-1238850265230583210,0.0,19.365429476761438,,,0,2,0.0,32995,57913922470469,236,11.921497344970703,-121.13383906720958,1.4129991362713996,4,-8117.333755844351,3.4028234663852886E38,1.59975002E9,,,,1,,3,,1.59975002E9
Raw,1112760,66769000000,,,-1238850265230583210,0.0,19.365429476761438,,,0,9,0.0,99,1925124095,134,18.9776611328125,531.009376004386,1.0961686870026521,4,34985.72466010838,3.4028234663852886E38,1.60087501E9,,,,0,,3,,1.60087501E9
Raw,1112760,66769000000,,,-1238850265230583210,0.0,19.365429476761438,,,0,99,0.0,16,18531676,1000000000,7.0,-718.2435321896623,2.99792458E8,4,-12078.542036512663,3.4028234663852886E38,1.60143744E9,,,,1,,3,,1.60143744E9
Raw,1112760,66769000000,,,-1238850265230583210,0.0,19.365429476761438,,,0,11,0.0,17,328571,126,19.673236846923828,-538.6271458617994,1.065825648439156,4,-30285.44904222027,3.4028234663852886E38,1.602E9,,,,1,,3,,1.602E9
Raw,1112761,66769000000,,,-1238850265230583210,0.0,19.365429476761438,,,0,1,0.0,99,1921724853,122,20.04888153076172,525.0291318530676,1.0473857081143576,4,31060.452344408317,3.4028234663852886E38,1.60256256E9,,,,0,,3,,1.60256256E9
Raw,1112761,66769000000,,,-1238850265230583210,0.0,19.365429476761438,,,0,20,0.0,17,601457,196,14.229220390319824,25.315132270260364,1.311225592729393,4,1324.8674903810822,3.4028234663852886E38,1.60312499E9,,,,0,,3,,1.60312499E9
Raw,1112761,66769000000,,,-1238850265230583210,0.0,19.365429476761438,,,0,19,0.0,17,700819,226,12.452625274658203,697.7632477352795,1.389156327780161,4,43077.608039431616,3.4028234663852886E38,1.60368755E9,,,,1,,3,,1.60368755E9
Raw,1112761,66769000000,,,-1238850265230583210,0.0,19.365429476761438,,,0,21,0.0,99,1929289121,105,21.999629974365234,-747.9068573997251,0.9610234259774719,4,-50502.18860668865,3.4028234663852886E38,1.60424998E9,,,,0,,3,,1.60424998E9
Raw,1112762,66769000000,,,-1238850265230583210,0.0,19.365429476761438,,,0,5,0.0,16,66001036028,1000000000,7.0,-53.58364572804834,2.99792458E8,2,-70.53126923739043,3.4028234663852886E38,1.56109798E9,,,,0,,5,,1.56109798E9
Raw,1112762,66769000000,,,-1238850265230583210,0.0,19.365429476761438,,,0,8,0.0,16397,219917867629945,63,11.053081512451172,82.4461184159664,1.4529789228494225,4,4660.793397651427,3.4028234663852886E38,1.56109798E9,,,,1,,5,,1.56109798E9
Raw,1112762,66769000000,,,-1238850265230583210,0.0,19.365429476761438,,,0,11,0.0,16397,219917925850496,14,29.139001846313477,-297.73658411635915,0.0060372003354132175,1,-19741.000832268564,0.09903834332284485,1.56109798E9,,,,0,,5,,1.56109798E9
Raw,1112762,66769000000,,,-1238850265230583210,0.0,19.365429476761438,,,0,12,0.0,17,145144,41,16.342140197753906,506.8823368669755,1.216667411740942,4,24864.311195242102,3.4028234663852886E38,1.56109798E9,,,,0,,5,,1.56109798E9
Raw,1112762,66769000000,,,-1238850265230583210,0.0,19.365429476761438,,,0,13,0.0,17,245096,68,10.165035247802734,-77.49629769331625,1.4935635398961296,4,-1258.052277204661,3.4028234663852886E38,1.56109798E9,,,,1,,5,,1.56109798E9
Raw,1112763,66769000000,,,-1238850265230583210,0.0,19.365429476761438,,,0,24,0.0,16397,219917914878309,15,28.27583122253418,501.41511839343,0.00666797673329711,1,30022.321195771783,0.0993537315217868,1.56109798E9,,,,0,,5,,1.56109798E9
Raw,1112763,66769000000,,,-1238850265230583210,0.0,19.365429476761438,,,0,25,0.0,16397,219917926929482,21,24.2933349609375,107.32014363970848,0.010546755976974964,1,5940.83220093689,0.10129312114362572,1.56109798E9,,,,0,,5,,1.56109798E9
Raw,1112763,66769000000,,,-1238850265230583210,0.0,19.365429476761438,,,0,7,0.0,16,66003636317,1000000000,7.0,489.00786070850063,2.99792458E8,2,493.5597990720157,3.4028234663852886E38,1.57542003E9,,,,0,,6,,1.57542003E9
Raw,1112763,66769000000,,,-1238850265230583210,0.0,19.365429476761438,,,0,13,0.0,19498,219931907929325,23,31.81640625,-667.2174595609281,0.5186098417571294,4,-43994.40505626072,3.4028234663852886E38,1.57542003E9,,,,0,,6,,1.57542003E9
Raw,1112764,66769000000,,,-1238850265230583210,0.0,19.365429476761438,,,0,15,0.0,19498,219931918428577,25,31.15462875366211,-424.2736778584913,0.004743381403386593,1,-28576.93746955475,0.0023716907016932964,1.57542003E9,,,,0,,6,,1.57542003E9
Raw,1112764,66769000000,,,-1238850265230583210,0.0,19.365429476761438,,,0,19,0.0,18440,219931909859359,1000000000,12.558268547058105,55.59007568323912,2.99792458E8,4,2017.4325893069338,3.4028234663852886E38,1.57542003E9,,,,0,,6,,1.57542003E9
Raw,1112764,66769000000,,,-1238850265230583210,0.0,19.365429476761438,,,0,21,0.0,18440,219931911283918,1000000000,9.991260528564453,-467.6735721410257,2.99792458E8,4,-17280.409035513443,3.4028234663852886E38,1.57542003E9,,,,0,,6,,1.57542003E9
Raw,1112764,66769000000,,,-1238850265230583210,0.0,19.365429476761438,,,0,27,0.0,16,66001934108,1000000000,16.197887420654297,-140.72434987037968,2.99792458E8,2,-414.9116991794212,3.4028234663852886E38,1.57542003E9,,,,0,,6,,1.57542003E9
Raw,1112764,66769000000,,,-1238850265230583210,0.0,19.365429476761438,,,0,30,0.0,19498,219931921548238,64,19.471773147583008,269.98888272444265,1.0733058822710402,4,12148.64145564464,3.4028234663852886E38,1.57542003E9,,,,0,,6,,1.57542003E9
Raw,1112764,66769000000,,,-1238850265230583210,0.0,19.365429476761438,,,0,13,0.0,17466,219931907929319,10,35.7242431640625,-668.3969691675156,0.003981130197644234,1,-114210.60395443147,0.001990565098822117,1.17645005E9,,,,0,,6,,1.17645005E9
Raw,1112765,66769000000,,,-1238850265230583210,0.0,19.365429476761438,,,0,15,0.0,17466,219931918428558,15,34.45667266845703,-424.2797626770043,0.004606646951287985,1,-90981.36823690962,0.0023033234756439924,1.17645005E9,,,,1,,6,,1.17645005E9
Raw,1112765,66769000000,,,-1238850265230583210,0.0,19.365429476761438,,,0,19,0.0,16408,219931909859264,1000000000,8.907938003540039,52.585021231315864,2.99792458E8,4,1928.4189673249875,3.4028234663852886E38,1.17645005E9,,,,1,,6,,1.17645005E9
Raw,1112765,66769000000,,,-1238850265230583210,0.0,19.365429476761438,,,0,21,0.0,16408,219931911283869,1000000000,7.0,-474.8182093369894,2.99792458E8,4,-17274.957775056,3.4028234663852886E38,1.17645005E9,,,,1,,6,,1.17645005E9
Raw,1112765,66769000000,,,-1238850265230583210,0.0,19.365429476761438,,,0,30,0.0,16408,219931921548260,1000000000,19.425155639648438,271.63538915783136,2.99792458E8,4,8687.45312201737,3.4028234663852886E38,1.17645005E9,,,,0,,6,,1.17645005E9
Raw,1113731,67769000000,,,-1238850265230583359,0.0,19.366070471455025,,,0,2,0.0,16431,219932923240752,71,18.157669067382812,-145.5142301451824,1.1327040818856364,4,-8963.656488301216,3.4028234663852886E38,1.57542003E9,,,,0,,1,,1.57542003E9
Raw,1113731,67769000000,,,-1238850265230583359,0.0,19.366070471455025,,,0,6,0.0,16431,219932920920793,68,18.73400115966797,173.73898598910216,1.1099672890489418,4,11612.695908475549,3.4028234663852886E38,1.57542003E9,,,,1,,1,,1.57542003E9
Raw,1113731,67769000000,,,-1238850265230583359,0.0,19.366070471455025,,,0,12,0.0,16431,219932930666956,57,20.84412384033203,252.4499653916631,1.0132330230922668,4,15331.14933839784,3.4028234663852886E38,1.57542003E9,,,,0,,1,,1.57542003E9
Raw,1113732,67769000000,,,-1238850265230583359,0.0,19.366070471455025,,,0,14,0.0,51,3614339,94,14.7652587890625,-193.35325226446867,1.2853241239834192,4,-11875.999335028746,3.4028234663852886E38,1.57542003E9,,,,1,,1,,1.57542003E9
Raw,1113732,67769000000,,,-1238850265230583359,0.0,19.366070471455025,,,0,19,0.0,16,67013744823,1000000000,7.0,692.2970351932381,2.99792458E8,2,17.913929664272835,3.4028234663852886E38,1.57542003E9,,,,0,,1,,1.57542003E9
Raw,1113732,67769000000,,,-1238850265230583359,0.0,19.366070471455025,,,0,24,0.0,16431,219932923589537,11,41.067813873291016,567.2254885466027,0.001606959733180702,1,38088.795488882024,8.034798665903509E-4,1.57542003E9,,,,0,,1,,1.57542003E9
Raw,1113732,67769000000,,,-1238850265230583359,0.0,19.366070471455025,,,0,25,0.0,16431,219932931152176,39,25.500713348388672,-177.32911267061718,0.8039187450204279,4,-11744.60727153068,3.4028234663852886E38,1.57542003E9,,,,0,,1,,1.57542003E9
Raw,1113732,67769000000,,,-1238850265230583359,0.0,19.366070471455025,,,0,29,0.0,16431,219932928326059,30,28.846107482910156,-542.3694634615531,0.006187484599649906,1,-36361.64001301873,0.09824057869900739,1.57542003E9,,,,0,,1,,1.57542003E9
Raw,1113732,67769000000,,,-1238850265230583359,0.0,19.366070471455025,,,0,31,0.0,39,2920026143,107,13.086294174194336,-662.0234976815909,1.3637774123226718,4,-41486.88245413521,3.4028234663852886E38,1.57542003E9,,,,1,,1,,1.57542003E9
Raw,1113732,67769000000,,,-1238850265230583359,0.0,19.366070471455025,,,0,32,0.0,16431,219932924864817,51,22.16537094116211,68.46146876013282,0.9527744729894834,4,3483.411166990368,3.4028234663852886E38,1.57542003E9,,,,1,,1,,1.57542003E9
Raw,1113733,67769000000,,,-1238850265230583359,0.0,19.366070471455025,,,0,6,0.0,16408,219932920920889,1000000000,15.705768585205078,177.06120752111963,2.99792458E8,4,31995.286317414488,3.4028234663852886E38,1.17645005E9,,,,0,,1,,1.17645005E9
Raw,1113733,67769000000,,,-1238850265230583359,0.0,19.366070471455025,,,0,24,0.0,16409,219932923589551,11,28.58014488220215,567.2174870242015,0.008543484844267368,1,103993.54908399572,0.004271742422133684,1.17645005E9,,,,1,,1,,1.17645005E9
Raw,1113733,67769000000,,,-1238850265230583359,0.0,19.366070471455025,,,0,25,0.0,16409,219932931152166,30,23.58570671081543,-177.75765324105305,0.015182980336248875,1,-23519.35199376977,0.007591490168124437,1.17645005E9,,,,0,,1,,1.17645005E9
Raw,1113733,67769000000,,,-1238850265230583359,0.0,19.366070471455025,,,0,32,0.0,16,4864917,1000000000,13.054027557373047,67.94282323830402,2.99792458E8,4,14462.892742253849,3.4028234663852886E38,1.17645005E9,,,,0,,1,,1.17645005E9
Raw,1113733,67769000000,,,-1238850265230583359,0.0,19.366070471455025,,,0,10,0.0,32995,57914934203473,204,13.76905632019043,97.82063786787899,1.332026941379758,4,6234.690692515509,3.4028234663852886E38,1.59806246E9,,,,1,,3,,1.59806246E9
Raw,1113733,67769000000,,,-1238850265230583359,0.0,19.366070471455025,,,0,2,0.0,32995,57914922470723,213,13.182132720947266,-119.94564794729723,1.3563098928446857,4,-8238.148953148626,3.4028234663852886E38,1.59975002E9,,,,1,,3,,1.59975002E9
Raw,1113734,67769000000,,,-1238850265230583359,0.0,19.366070471455025,,,0,9,0.0,99,925122347,116,20.759891510009766,531.5285199821415,1.016023524220072,4,35516.77711013264,3.4028234663852886E38,1.60087501E9,,,,0,,3,,1.60087501E9
Raw,1113734,67769000000,,,-1238850265230583359,0.0,19.366070471455025,,,0,99,0.0,16,18535047,1000000000,7.0,-717.9698500637842,2.99792458E8,4,-12796.79957107015,3.4028234663852886E38,1.60143744E9,,,,1,,3,,1.60143744E9
Raw,1113734,67769000000,,,-1238850265230583359,0.0,19.366070471455025,,,0,11,0.0,17,330401,132,19.141809463500977,-538.8549530011978,1.0897235746530525,4,-30824.634496585157,3.4028234663852886E38,1.602E9,,,,0,,3,,1.602E9
Raw,1113734,67769000000,,,-1238850265230583359,0.0,19.366070471455025,,,0,1,0.0,99,921723074,93,23.39518928527832,525.0467865655464,0.8969056715093391,4,31586.148476271286,3.4028234663852886E38,1.60256256E9,,,,1,,3,,1.60256256E9
Raw,1113734,67769000000,,,-1238850265230583359,0.0,19.366070471455025,,,0,20,0.0,17,601147,180,15.288891792297363,25.004176717867438,1.263573259395864,4,1352.8507788944912,3.4028234663852886E38,1.60312499E9,,,,0,,3,,1.60312499E9
Raw,1113734,67769000000,,,-1238850265230583359,0.0,19.366070471455025,,,0,19,0.0,17,698541,234,12.042606353759766,698.5957458183057,1.407594004816831,4,43775.90308494213,3.4028234663852886E38,1.60368755E9,,,,1,,3,,1.60368755E9
Raw,1113734,67769000000,,,-1238850265230583359,0.0,19.366070471455025,,,0,21,0.0,99,929291530,89,24.04144287109375,-747.5847781855846,0.8692058872107018,4,-51249.817071571204,3.4028234663852886E38,1.60424998E9,,,,0,,3,,1.60424998E9
Raw,1113735,67769000000,,,-1238850265230583359,0.0,19.366070471455025,,,0,5,0.0,16,67001036211,1000000000,24.511550903320312,-53.95836103598131,2.99792458E8,2,-70.52952850693119,3.4028234663852886E38,1.56109798E9,,,,0,,5,,1.56109798E9
Raw,1113735,67769000000,,,-1238850265230583359,0.0,19.366070471455025,,,0,8,0.0,16397,219918867629601,51,13.532421112060547,81.85568245977936,1.3414856218724127,4,4743.003477914788,3.4028234663852886E38,1.56109798E9,,,,1,,5,,1.56109798E9
Raw,1113735,67769000000,,,-1238850265230583359,0.0,19.366070471455025,,,0,11,0.0,16397,219918925851492,14,29.24860382080078,-297.63618686821064,0.005961497779935598,1,-20038.637019136775,0.002980748889967799,1.56109798E9,,,,0,,5,,1.56109798E9
Raw,1113735,67769000000,,,-1238850265230583359,0.0,19.366070471455025,,,0,12,0.0,17,143451,44,15.548897743225098,506.5861944022488,1.2523384302607452,4,25371.95277057757,3.4028234663852886E38,1.56109798E9,,,,0,,5,,1.56109798E9
Raw,1113736,67769000000,,,-1238850265230583359,0.0,19.366070471455025,,,0,13,0.0,17,245421,53,13.2745361328125,-79.0272816403209,1.3537328064739356,4,-1336.1034621484107,3.4028234663852886E38,1.56109798E9,,,,1,,5,,1.56109798E9
Raw,1113736,67769000000,,,-1238850265230583359,0.0,19.366070471455025,,,0,24,0.0,16397,219918914876644,12,31.660388946533203,501.445060330522,0.5275949957762001,4,30523.69227471887,3.4028234663852886E38,1.56109798E9,,,,0,,5,,1.56109798E9
Raw,1113736,67769000000,,,-1238850265230583359,0.0,19.366070471455025,,,0,25,0.0,16397,219918926929120,21,24.534191131591797,107.633948450807,0.8466224654283598,4,6048.286867341305,3.4028234663852886E38,1.56109798E9,,,,0,,5,,1.56109798E9
Raw,1113736,67769000000,,,-1238850265230583359,0.0,19.366070471455025,,,0,7,0.0,16,67003634687,1000000000,16.900362014770508,488.8222135678209,2.99792458E8,2,493.54013140325463,3.4028234663852886E38,1.57542003E9,,,,0,,6,,1.57542003E9
Raw,1113736,67769000000,,,-1238850265230583359,0.0,19.366070471455025,,,0,13,0.0,19498,219932907931581,21,35.32664489746094,-667.3631279801066,299.7931729746838,4,-44657.86706701584,3.4028234663852886E38,1.57542003E9,,,,0,,6,,1.57542003E9
Raw,1113736,67769000000,,,-1238850265230583359,0.0,19.366070471455025,,,0,15,0.0,19498,219932918429987,19,34.345680236816406,-424.2311611399091,0.003484269604086876,1,-29001.168630694658,0.001742134802043438,1.57542003E9,,,,0,,6,,1.57542003E9
Raw,1113736,67769000000,,,-1238850265230583359,0.0,19.366070471455025,,,0,19,0.0,18440,219932909859173,1000000000,11.698063850402832,55.67947396669845,2.99792458E8,4,2073.22738839695,3.4028234663852886E38,1.57542003E9,,,,0,,6,,1.57542003E9
Raw,1113737,67769000000,,,-1238850265230583359,0.0,19.366070471455025,,,0,21,0.0,18440,219932911285472,1000000000,9.16538143157959,-467.48894747404165,2.99792458E8,4,-17747.61613617979,3.4028234663852886E38,1.57542003E9,,,,0,,6,,1.57542003E9
Raw,1113737,67769000000,,,-1238850265230583359,0.0,19.366070471455025,,,0,27,0.0,18474,219932921934583,1000000000,14.798166275024414,-140.9466186105932,2.99792458E8,4,-527.9459881922269,3.4028234663852886E38,1.57542003E9,,,,0,,6,,1.57542003E9
Raw,1113737,67769000000,,,-1238850265230583359,0.0,19.366070471455025,,,0,30,0.0,19498,219932921547338,62,19.92518424987793,269.8632377484713,1.0529163189254604,4,12418.709435345323,3.4028234663852886E38,1.57542003E9,,,,0,,6,,1.57542003E9
Raw,1113737,67769000000,,,-1238850265230583359,0.0,19.366070471455025,,,0,13,0.0,17466,219932907931547,8,35.00727844238281,-668.4029048466036,0.004323691129684448,1,-114879.00685927807,0.002161845564842224,1.17645005E9,,,,0,,6,,1.17645005E9
Raw,1113737,67769000000,,,-1238850265230583359,0.0,19.366070471455025,,,0,15,0.0,17466,219932918429974,12,34.60735321044922,-424.2797938345757,0.0045274212025105945,1,-91405.6480307442,0.0022637106012552977,1.17645005E9,,,,1,,6,,1.17645005E9
Raw,1113737,67769000000,,,-1238850265230583359,0.0,19.366070471455025,,,0,19,0.0,16408,219932909859132,1000000000,7.0,55.30907434982268,2.99792458E8,4,1981.4205081459281,3.4028234663852886E38,1.17645005E9,,,,1,,6,,1.17645005E9
Raw,1113738,67769000000,,,-1238850265230583359,0.0,19.366070471455025,,,0,21,0.0,16408,219932911285428,1000000000,7.0,-467.3889154641472,2.99792458E8,4,-17742.26575106365,3.4028234663852886E38,1.17645005E9,,,,1,,6,,1.17645005E9
Raw,1113738,67769000000,,,-1238850265230583359,0.0,19.366070471455025,,,0,27,0.0,16408,219932921934525,1000000000,7.0,-141.70660626736708,2.99792458E8,6,36332.42983784915,3.4028234663852886E38,1.17645005E9,,,,0,,6,,1.17645005E9
Raw,1113738,67769000000,,,-1238850265230583359,0.0,19.366070471455025,,,0,30,0.0,16408,219932921547353,1000000000,20.075998306274414,269.95491955651767,2.99792458E8,4,8957.460274966308,3.4028234663852886E38,1.17645005E9,,,,0,,6,,1.17645005E9
Raw,1114717,68769000000,,,-1238850265230583505,0.0,19.48371765137058,,,0,2,0.0,16431,219933923241276,63,19.719955444335938,-145.36046714257975,1.0624497544936524,4,-9109.715942140252,3.4028234663852886E38,1.57542003E9,,,,0,,1,,1.57542003E9
Raw,1114717,68769000000,,,-1238850265230583505,0.0,19.48371765137058,,,0,6,0.0,16431,219933920920112,59,20.39114761352539,174.78388594117848,1.035447196073179,4,11788.188430020511,3.4028234663852886E38,1.57542003E9,,,,1,,1,,1.57542003E9
Raw,1114717,68769000000,,,-1238850265230583505,0.0,19.48371765137058,,,0,12,0.0,16431,219933930666098,51,22.16073989868164,252.4474092074239,0.9540262044591219,4,15582.446454697527,3.4028234663852886E38,1.57542003E9,,,,0,,1,,1.57542003E9
Raw,1114717,68769000000,,,-1238850265230583505,0.0,19.48371765137058,,,0,14,0.0,51,3614931,65,19.296253204345703,-193.62896229650994,1.0815704785740343,4,-12069.48584485043,3.4028234663852886E38,1.57542003E9,,,,1,,1,,1.57542003E9
Raw,1114717,68769000000,,,-1238850265230583505,0.0,19.48371765137058,,,0,19,0.0,16,68013742514,1000000000,7.0,692.2970351932381,2.99792458E8,2,17.93017123607646,3.4028234663852886E38,1.57542003E9,,,,0,,1,,1.57542003E9
Raw,1114717,68769000000,,,-1238850265230583505,0.0,19.48371765137058,,,0,24,0.0,16431,219933923587628,13,38.7135124206543,567.0318400349313,0.20839345264004194,4,38656.081495376755,3.4028234663852886E38,1.57542003E9,,,,0,,1,,1.57542003E9
Raw,1114718,68769000000,,,-1238850265230583505,0.0,19.48371765137058,,,0,25,0.0,16431,219933931152766,38,25.93276596069336,-177.61215043081086,0.7844900140526807,4,-11922.213235384133,3.4028234663852886E38,1.57542003E9,,,,0,,1,,1.57542003E9
Raw,1114718,68769000000,,,-1238850265230583505,0.0,19.48371765137058,,,0,29,0.0,16431,219933928327863,26,30.43073272705078,-542.1698568440333,0.005155643448233604,1,-36903.809869862765,0.09772465812329924,1.57542003E9,,,,0,,1,,1.57542003E9
Raw,1114718,68769000000,,,-1238850265230583505,0.0,19.48371765137058,,,0,31,0.0,39,3920028371,102,13.719547271728516,-663.5299422598991,1.3353011204940763,4,-42149.57294236076,3.4028234663852886E38,1.57542003E9,,,,1,,1,,1.57542003E9
Raw,1114718,68769000000,,,-1238850265230583505,0.0,19.48371765137058,,,0,32,0.0,16431,219933924864542,59,20.53692626953125,69.14895451126856,1.0260036263571468,4,3551.513860915803,3.4028234663852886E38,1.57542003E9,,,,1,,1,,1.57542003E9
Raw,1114718,68769000000,,,-1238850265230583505,0.0,19.48371765137058,,,0,6,0.0,16408,219933920920329,1000000000,16.3939266204834,175.1626272392882,2.99792458E8,4,32168.13132892061,3.4028234663852886E38,1.17645005E9,,,,0,,1,,1.17645005E9
Raw,1114718,68769000000,,,-1238850265230583505,0.0,19.48371765137058,,,0,24,0.0,16408,219933923587654,1000000000,28.507535934448242,567.2692243446127,2.99792458E8,4,104560.45546165042,3.4028234663852886E38,1.17645005E9,,,,0,,1,,1.17645005E9
Raw,1114718,68769000000,,,-1238850265230583505,0.0,19.48371765137058,,,0,25,0.0,16409,219933931152756,46,21.85852813720703,-177.53774842822156,0.9677037205905386,4,-23696.975382558274,3.4028234663852886E38,1.17645005E9,,,,0,,1,,1.17645005E9
Raw,1114719,68769000000,,,-1238850265230583505,0.0,19.48371765137058,,,0,32,0.0,16,4864689,1000000000,15.932628631591797,71.39971307665724,2.99792458E8,4,14531.47737798148,3.4028234663852886E38,1.17645005E9,,,,0,,1,,1.17645005E9
Raw,1114719,68769000000,,,-1238850265230583505,0.0,19.48371765137058,,,0,10,0.0,32995,57915934203334,112,21.178394317626953,97.43221715211678,0.998837312383849,4,6332.472143917724,3.4028234663852886E38,1.59806246E9,,,,1,,3,,1.59806246E9
Raw,1114719,68769000000,,,-1238850265230583505,0.0,19.48371765137058,,,0,2,0.0,32995,57915922471229,121,20.213590621948242,-120.16569280722263,1.0401131642519093,4,-8358.447454755065,3.4028234663852886E38,1.59975002E9,,,,1,,3,,1.59975002E9
Raw,1114719,68769000000,,,-1238850265230583505,0.0,19.48371765137058,,,0,9,0.0,99,1925120613,121,20.228763580322266,530.5041035864353,1.0399074047341124,4,36046.83252018518,3.4028234663852886E38,1.60087501E9,,,,0,,3,,1.60087501E9
Raw,1114719,68769000000,,,-1238850265230583505,0.0,19.48371765137058,,,0,99,0.0,16,18537440,1000000000,7.812471389770508,-718.2435321896623,2.99792458E8,4,-13515.26083508276,3.4028234663852886E38,1.60143744E9,,,,1,,3,,1.60143744E9
Raw,1114720,68769000000,,,-1238850265230583505,0.0,19.48371765137058,,,0,11,0.0,17,332179,127,19.558372497558594,-539.2758713392545,1.0709916035923839,4,-31364.58584332324,3.4028234663852886E38,1.602E9,,,,1,,3,,1.602E9
Raw,1114720,68769000000,,,-1238850265230583505,0.0,19.48371765137058,,,0,1,0.0,99,1921721390,75,26.083852767944336,526.15552295869,0.7759992220714356,4,32111.990213651152,3.4028234663852886E38,1.60256256E9,,,,0,,3,,1.60256256E9
Raw,1114720,68769000000,,,-1238850265230583505,0.0,19.48371765137058,,,0,20,0.0,17,601180,138,18.6129093170166,25.146098196981953,1.1140960591336504,4,1378.3981418763976,3.4028234663852886E38,1.60312499E9,,,,0,,3,,1.60312499E9
Raw,1114720,68769000000,,,-1238850265230583505,0.0,19.48371765137058,,,0,19,0.0,17,696471,242,11.607992172241211,697.9790578499819,1.4271376309407469,4,44472.99534579685,3.4028234663852886E38,1.60368755E9,,,,1,,3,,1.60368755E9
Raw,1114720,68769000000,,,-1238850265230583505,0.0,19.48371765137058,,,0,21,0.0,99,1929294106,51,30.793367385864258,-747.9704552635967,0.5655797937199254,4,-51997.06842477257,3.4028234663852886E38,1.60424998E9,,,,0,,3,,1.60424998E9
Raw,1114720,68769000000,,,-1238850265230583505,0.0,19.48371765137058,,,0,5,0.0,16,68001036392,1000000000,27.731929779052734,-53.95836103598131,2.99792458E8,2,-70.53079439217578,3.4028234663852886E38,1.56109798E9,,,,0,,5,,1.56109798E9
Raw,1114720,68769000000,,,-1238850265230583505,0.0,19.48371765137058,,,0,8,0.0,16397,219919867629298,51,13.666704177856445,81.12777491520757,1.3354470360110646,4,4825.205849030491,3.4028234663852886E38,1.56109798E9,,,,1,,5,,1.56109798E9
Raw,1114721,68769000000,,,-1238850265230583505,0.0,19.48371765137058,,,0,11,0.0,16397,219919925852496,11,32.33412170410156,-296.8707386576789,0.4956747449400023,4,-20335.831410568324,3.4028234663852886E38,1.56109798E9,,,,0,,5,,1.56109798E9
Raw,1114721,68769000000,,,-1238850265230583505,0.0,19.48371765137058,,,0,12,0.0,17,141726,56,12.525894165039062,507.35161821083807,1.388279103928486,4,25878.917946256926,3.4028234663852886E38,1.56109798E9,,,,0,,5,,1.56109798E9
Raw,1114721,68769000000,,,-1238850265230583505,0.0,19.48371765137058,,,0,13,0.0,17,245711,40,16.64759063720703,-79.27446465625258,1.2020505644689132,4,-1416.704372159457,3.4028234663852886E38,1.56109798E9,,,,1,,5,,1.56109798E9
Raw,1114721,68769000000,,,-1238850265230583505,0.0,19.48371765137058,,,0,24,0.0,16397,219919914874996,11,32.471500396728516,501.75190468659684,0.49111997743240754,4,31025.22938557807,3.4028234663852886E38,1.56109798E9,,,,0,,5,,1.56109798E9
Raw,1114721,68769000000,,,-1238850265230583505,0.0,19.48371765137058,,,0,25,0.0,16397,219919926928741,14,29.23371124267578,107.50149550414523,0.635290332855396,4,6155.932055388126,3.4028234663852886E38,1.56109798E9,,,,0,,5,,1.56109798E9
Raw,1114721,68769000000,,,-1238850265230583505,0.0,19.48371765137058,,,0,7,0.0,16,68003633056,1000000000,7.0,489.00786070850063,2.99792458E8,2,493.5521508555211,3.4028234663852886E38,1.57542003E9,,,,0,,6,,1.57542003E9
Raw,1114721,68769000000,,,-1238850265230583505,0.0,19.48371765137058,,,0,13,0.0,19498,219933907933805,20,33.8343391418457,-668.580008007797,0.4278665660438068,4,-45328.77374018242,3.4028234663852886E38,1.57542003E9,,,,0,,6,,1.57542003E9
Raw,1114722,68769000000,,,-1238850265230583505,0.0,19.48371765137058,,,0,15,0.0,19498,219933918431380,20,33.60696792602539,-424.61870444384635,0.4378209732038938,4,-29424.81254600774,3.4028234663852886E38,1.57542003E9,,,,0,,6,,1.57542003E9
Raw,1114722,68769000000,,,-1238850265230583505,0.0,19.48371765137058,,,0,19,0.0,18440,219933909858982,1000000000,11.258995056152344,55.643427508618515,2.99792458E8,4,2128.9169675937687,3.4028234663852886E38,1.57542003E9,,,,0,,6,,1.57542003E9
Raw,1114722,68769000000,,,-1238850265230583505,0.0,19.48371765137058,,,0,21,0.0,18440,219933911287030,1000000000,8.30517292022705,-467.7267748556578,2.99792458E8,4,-18214.767142523662,3.4028234663852886E38,1.57542003E9,,,,0,,6,,1.57542003E9
Raw,1114722,68769000000,,,-1238850265230583505,0.0,19.48371765137058,,,0,27,0.0,18474,219933921934975,1000000000,13.796049118041992,-141.23786172219474,2.99792458E8,4,-670.826982667532,3.4028234663852886E38,1.57542003E9,,,,0,,6,,1.57542003E9
Raw,1114722,68769000000,,,-1238850265230583505,0.0,19.48371765137058,,,0,30,0.0,19498,219933921546436,45,23.818777084350586,270.42927918640214,0.8778256866152696,4,12688.749066399081,3.4028234663852886E38,1.57542003E9,,,,0,,6,,1.57542003E9
Raw,1114722,68769000000,,,-1238850265230583505,0.0,19.48371765137058,,,0,13,0.0,17466,219933907933789,25,31.754501342773438,-667.8043594622509,0.5221140108856788,4,-115547.49813021891,3.4028234663852886E38,1.17645005E9,,,,1,,6,,1.17645005E9
Raw,1114722,68769000000,,,-1238850265230583505,0.0,19.48371765137058,,,0,15,0.0,17466,219933918431400,17,32.224273681640625,-423.5992981692491,0.5028771268704681,4,-91829.35130017137,3.4028234663852886E38,1.17645005E9,,,,1,,6,,1.17645005E9
Raw,1114723,68769000000,,,-1238850265230583505,0.0,19.48371765137058,,,0,19,0.0,16408,219933909858956,1000000000,7.0,53.405637317936765,2.99792458E8,4,2034.0876660826534,3.4028234663852886E38,1.17645005E9,,,,1,,6,,1.17645005E9
Raw,1114723,68769000000,,,-1238850265230583505,0.0,19.48371765137058,,,0,21,0.0,16408,219933911286976,1000000000,10.875303268432617,-467.38407575532096,2.99792458E8,4,-18211.231722292956,3.4028234663852886E38,1.17645005E9,,,,1,,6,,1.17645005E9
Raw,1114723,68769000000,,,-1238850265230583505,0.0,19.48371765137058,,,0,27,0.0,16408,219933921935401,1000000000,7.0,-205.40383754092352,2.99792458E8,4,36088.980753753814,3.4028234663852886E38,1.17645005E9,,,,0,,6,,1.17645005E9
Raw,1114723,68769000000,,,-1238850265230583505,0.0,19.48371765137058,,,0,30,0.0,16408,219933921546446,1000000000,17.204139709472656,270.14601989024106,2.99792458E8,4,9227.54762116109,3.4028234663852886E38,1.17645005E9,,,,0,,6,,1.17645005E9
Raw,1115736,69769000000,,,-1238850265230583653,0.0,19.716740695016963,,,0,2,0.0,16431,219934923241761,53,21.845813751220703,-145.20130207061823,0.9668525911196388,4,-9255.34548660492,3.4028234663852886E38,1.57542003E9,,,,0,,1,,1.57542003E9
Raw,1115736,69769000000,,,-1238850265230583653,0.0,19.716740695016963,,,0,6,0.0,16431,219934920919560,53,21.685585021972656,175.57614968427947,0.9772376886971137,4,11964.751943708465,3.4028234663852886E38,1.57542003E9,,,,0,,1,,1.57542003E9
Raw,1115736,69769000000,,,-1238850265230583653,0.0,19.716740695016963,,,0,12,0.0,16431,219934930665291,55,21.32217788696289,253.0621715169541,0.9917351808040147,4,15835.942506947906,3.4028234663852886E38,1.57542003E9,,,,0,,1,,1.57542003E9
Raw,1115736,69769000000,,,-1238850265230583653,0.0,19.716740695016963,,,0,14,0.0,51,3615517,71,18.164321899414062,-193.8786333317678,1.1324722945543622,4,-12263.11456484462,3.4028234663852886E38,1.57542003E9,,,,1,,1,,1.57542003E9
Raw,1115736,69769000000,,,-1238850265230583653,0.0,19.716740695016963,,,0,19,0.0,16,69013740204,1000000000,8.869407653808594,692.2970351932381,2.99792458E8,2,17.90310194977414,3.4028234663852886E38,1.57542003E9,,,,0,,1,,1.57542003E9
Raw,1115737,69769000000,,,-1238850265230583653,0.0,19.716740695016963,,,0,24,0.0,16431,219934923585755,16,36.22040557861328,567.6059249326015,0.32050529694910246,4,39224.25125866194,3.4028234663852886E38,1.57542003E9,,,,0,,1,,1.57542003E9
Raw,1115737,69769000000,,,-1238850265230583653,0.0,19.716740695016963,,,0,25,0.0,16431,219934931153349,44,24.153242111206055,-177.57798276814674,0.8645132255455152,4,-12098.940819980306,3.4028234663852886E38,1.57542003E9,,,,0,,1,,1.57542003E9
Raw,1115737,69769000000,,,-1238850265230583653,0.0,19.716740695016963,,,0,29,0.0,16431,219934928329684,24,31.274991989135742,-541.5989997407623,0.54374824956732,4,-37444.89029902251,3.4028234663852886E38,1.57542003E9,,,,0,,1,,1.57542003E9
Raw,1115737,69769000000,,,-1238850265230583653,0.0,19.716740695016963,,,0,31,0.0,39,4920030592,99,14.030591011047363,-663.3442610367629,1.3213142661293364,4,-42812.118262009826,3.4028234663852886E38,1.57542003E9,,,,1,,1,,1.57542003E9
Raw,1115737,69769000000,,,-1238850265230583653,0.0,19.716740695016963,,,0,32,0.0,16431,219934924864290,61,19.94488525390625,70.16181695421344,1.0526270840161018,4,3620.4135169095985,3.4028234663852886E38,1.57542003E9,,,,1,,1,,1.57542003E9
Raw,1115738,69769000000,,,-1238850265230583653,0.0,19.716740695016963,,,0,6,0.0,16408,219934920919756,1000000000,14.417534828186035,174.0749367630475,2.99792458E8,4,32340.350068180018,3.4028234663852886E38,1.17645005E9,,,,0,,1,,1.17645005E9
Raw,1115738,69769000000,,,-1238850265230583653,0.0,19.716740695016963,,,0,24,0.0,16408,219934923585718,1000000000,33.29840087890625,566.5379511574592,2.99792458E8,4,105128.77016868076,3.4028234663852886E38,1.17645005E9,,,,1,,1,,1.17645005E9
Raw,1115738,69769000000,,,-1238850265230583653,0.0,19.716740695016963,,,0,25,0.0,16409,219934931153346,72,19.779972076416016,-177.34964735067217,1.061174258498665,4,-23873.95477072111,3.4028234663852886E38,1.17645005E9,,,,0,,1,,1.17645005E9
Raw,1115738,69769000000,,,-1238850265230583653,0.0,19.716740695016963,,,0,32,0.0,16,4864468,1000000000,15.468902587890625,71.57916573086396,2.99792458E8,4,14603.841917101838,3.4028234663852886E38,1.17645005E9,,,,1,,1,,1.17645005E9
Raw,1115738,69769000000,,,-1238850265230583653,0.0,19.716740695016963,,,0,10,0.0,32995,57916934202879,133,19.07036018371582,98.45970948952407,1.093633205193087,4,6430.997190748681,3.4028234663852886E38,1.59806246E9,,,,1,,3,,1.59806246E9
Raw,1115738,69769000000,,,-1238850265230583653,0.0,19.716740695016963,,,0,2,0.0,32995,57916922472399,129,19.370336532592773,-120.11511444174278,1.078033624902218,4,-8477.608778402468,3.4028234663852886E38,1.59975002E9,,,,1,,3,,1.59975002E9
Raw,1115738,69769000000,,,-1238850265230583653,0.0,19.716740695016963,,,0,9,0.0,99,925118820,91,23.661151885986328,531.4096062913334,0.8855564797564348,4,36577.419495065405,3.4028234663852886E38,1.60087501E9,,,,1,,3,,1.60087501E9
Raw,1115739,69769000000,,,-1238850265230583653,0.0,19.716740695016963,,,0,99,0.0,16,18539290,1000000000,8.211753845214844,-718.3347368433174,2.99792458E8,4,-14233.201761780201,3.4028234663852886E38,1.60143744E9,,,,1,,3,,1.60143744E9
Raw,1115739,69769000000,,,-1238850265230583653,0.0,19.716740695016963,,,0,11,0.0,17,334032,111,21.311603546142578,-538.9481344373312,0.9921510932812696,4,-31902.90923043718,3.4028234663852886E38,1.602E9,,,,0,,3,,1.602E9
Raw,1115739,69769000000,,,-1238850265230583653,0.0,19.716740695016963,,,0,1,0.0,99,921719602,91,23.739593505859375,526.0829273262964,0.8814176580097439,4,32637.803492849736,3.4028234663852886E38,1.60256256E9,,,,0,,3,,1.60256256E9
Raw,1115739,69769000000,,,-1238850265230583653,0.0,19.716740695016963,,,0,20,0.0,17,601077,179,15.374093055725098,25.56457111878315,1.2597417788635594,4,1403.744523290446,3.4028234663852886E38,1.60312499E9,,,,0,,3,,1.60312499E9
Raw,1115739,69769000000,,,-1238850265230583653,0.0,19.716740695016963,,,0,19,0.0,17,694135,233,12.072458267211914,698.2095234209892,1.4062508098798832,4,45170.81870500747,3.4028234663852886E38,1.60368755E9,,,,0,,3,,1.60368755E9
Raw,1115739,69769000000,,,-1238850265230583653,0.0,19.716740695016963,,,0,21,0.0,99,929296592,51,30.882389068603516,-747.5440837324963,0.5615770355301342,4,-52743.98860055871,3.4028234663852886E38,1.60424998E9,,,,0,,3,,1.60424998E9
Raw,1115739,69769000000,,,-1238850265230583653,0.0,19.716740695016963,,,0,5,0.0,16,69001036566,1000000000,25.96922492980957,-53.95836103598131,2.99792458E8,2,-70.5320602774308,3.4028234663852886E38,1.56109798E9,,,,0,,5,,1.56109798E9
Raw,1115740,69769000000,,,-1238850265230583653,0.0,19.716740695016963,,,0,8,0.0,16397,219920867629024,29,20.68113136291504,80.56168235359195,1.020016164180583,4,4906.1258330771925,3.4028234663852886E38,1.56109798E9,,,,1,,5,,1.56109798E9
Raw,1115740,69769000000,,,-1238850265230583653,0.0,19.716740695016963,,,0,11,0.0,16397,219920925853481,13,30.570938110351562,-296.8583326435046,0.5749633197332553,4,-20632.864637277955,3.4028234663852886E38,1.56109798E9,,,,0,,5,,1.56109798E9
Raw,1115740,69769000000,,,-1238850265230583653,0.0,19.716740695016963,,,0,12,0.0,17,140035,39,16.910634994506836,504.42465092711564,1.1911019747147478,4,26385.08568439348,3.4028234663852886E38,1.56109798E9,,,,0,,5,,1.56109798E9
Raw,1115740,69769000000,,,-1238850265230583653,0.0,19.716740695016963,,,0,13,0.0,17,245959,37,17.520580291748047,-79.02128312797288,1.162793166207659,4,-1495.3057401719802,3.4028234663852886E38,1.56109798E9,,,,1,,5,,1.56109798E9
Raw,1115740,69769000000,,,-1238850265230583653,0.0,19.716740695016963,,,0,24,0.0,16397,219920914873352,11,32.36809539794922,500.7970505846538,0.49576966990680216,4,31526.879302381352,3.4028234663852886E38,1.56109798E9,,,,0,,5,,1.56109798E9
Raw,1115740,69769000000,,,-1238850265230583653,0.0,19.716740695016963,,,0,25,0.0,16397,219920926928376,16,27.587356567382812,108.02953500305313,0.7093249505276025,4,6264.0498102776555,3.4028234663852886E38,1.56109798E9,,,,0,,5,,1.56109798E9
Raw,1115740,69769000000,,,-1238850265230583653,0.0,19.716740695016963,,,0,7,0.0,16,69003631418,1000000000,7.0,489.00786070850063,2.99792458E8,2,493.56362318028454,3.4028234663852886E38,1.57542003E9,,,,0,,6,,1.57542003E9
Raw,1115741,69769000000,,,-1238850265230583653,0.0,19.716740695016963,,,0,13,0.0,19498,219934907936046,24,31.579753875732422,-669.4926680285648,0.5292531205994944,4,-45997.78437862883,3.4028234663852886E38,1.57542003E9,,,,0,,6,,1.57542003E9
Raw,1115741,69769000000,,,-1238850265230583653,0.0,19.716740695016963,,,0,15,0.0,19498,219934918432856,25,30.986112594604492,-423.6499821457037,0.0048363059759140015,1,-29848.462528153443,0.0024181529879570007,1.57542003E9,,,,1,,6,,1.57542003E9
Raw,1115741,69769000000,,,-1238850265230583653,0.0,19.716740695016963,,,0,19,0.0,18440,219934909858794,1000000000,11.355871200561523,55.8442796852145,2.99792458E8,4,2184.810600640203,3.4028234663852886E38,1.57542003E9,,,,0,,6,,1.57542003E9
Raw,1115741,69769000000,,,-1238850265230583653,0.0,19.716740695016963,,,0,21,0.0,18440,219934911288587,1000000000,7.918853759765625,-467.24133842740343,2.99792458E8,4,-18682.30816061779,3.4028234663852886E38,1.57542003E9,,,,1,,6,,1.57542003E9
Raw,1115741,69769000000,,,-1238850265230583653,0.0,19.716740695016963,,,0,27,0.0,18474,219934921935516,1000000000,13.689538955688477,-141.4298993234725,2.99792458E8,4,-815.4775863050434,3.4028234663852886E38,1.57542003E9,,,,0,,6,,1.57542003E9
Raw,1115741,69769000000,,,-1238850265230583653,0.0,19.716740695016963,,,0,30,0.0,19498,219934921545544,50,22.518308639526367,270.50432875566537,0.9363060563264742,4,12959.67036512502,3.4028234663852886E38,1.57542003E9,,,,0,,6,,1.57542003E9
Raw,1115742,69769000000,,,-1238850265230583653,0.0,19.716740695016963,,,0,13,0.0,17466,219934907936019,25,31.99332046508789,-668.3896234056606,0.5113749749852903,4,-116216.07403454781,3.4028234663852886E38,1.17645005E9,,,,1,,6,,1.17645005E9
Raw,1115742,69769000000,,,-1238850265230583653,0.0,19.716740695016963,,,0,15,0.0,17466,219934918432821,24,31.090625762939453,-423.7441247796087,0.0063989837653934956,1,-92253.09542495098,0.0031994918826967478,1.17645005E9,,,,1,,6,,1.17645005E9
Raw,1115742,69769000000,,,-1238850265230583653,0.0,19.716740695016963,,,0,19,0.0,16408,219934909858752,1000000000,7.0,51.30311187657992,2.99792458E8,4,2088.4528864784374,3.4028234663852886E38,1.17645005E9,,,,1,,6,,1.17645005E9
Raw,1115742,69769000000,,,-1238850265230583653,0.0,19.716740695016963,,,0,21,0.0,16408,219934911288530,1000000000,7.0,-467.199587418163,2.99792458E8,4,-18678.921543610628,3.4028234663852886E38,1.17645005E9,,,,1,,6,,1.17645005E9
Raw,1115742,69769000000,,,-1238850265230583653,0.0,19.716740695016963,,,0,27,0.0,16408,219934921936327,1000000000,7.0,-269.1011028969365,2.99792458E8,4,35812.90614835403,3.4028234663852886E38,1.17645005E9,,,,0,,6,,1.17645005E9
Raw,1115742,69769000000,,,-1238850265230583653,0.0,19.716740695016963,,,0,30,0.0,16408,219934921545536,1000000000,17.193279266357422,269.2858809349749,2.99792458E8,4,9498.314379383228,3.4028234663852886E38,1.17645005E9,,,,0,,6,,1.17645005E9
Raw,1116741,70769000000,,,-1238850265230583800,0.0,20.03332367967494,,,0,2,0.0,16431,219935923242249,70,18.424789428710938,-145.66052908980657,1.1206922792494742,4,-9401.68126604579,3.4028234663852886E38,1.57542003E9,,,,0,,1,,1.57542003E9
Raw,1116741,70769000000,,,-1238850265230583800,0.0,20.03332367967494,,,0,6,0.0,16431,219935920919004,80,20.42683219909668,175.66312811332568,299.7962063133143,4,12141.343001192667,3.4028234663852886E38,1.57542003E9,,,,1,,1,,1.57542003E9
Raw,1116741,70769000000,,,-1238850265230583800,0.0,20.03332367967494,,,0,12,0.0,16431,219935930664401,73,17.779918670654297,253.74658132638865,1.1510263312277544,4,16089.848793752626,3.4028234663852886E38,1.57542003E9,,,,1,,1,,1.57542003E9
Raw,1116742,70769000000,,,-1238850265230583800,0.0,20.03332367967494,,,0,14,0.0,51,3616179,88,15.575057029724121,-194.2363627954312,1.2489088830731374,4,-12456.778838496146,3.4028234663852886E38,1.57542003E9,,,,1,,1,,1.57542003E9
Raw,1116742,70769000000,,,-1238850265230583800,0.0,20.03332367967494,,,0,19,0.0,16,70013737895,1000000000,7.0,692.2970351932381,2.99792458E8,2,17.91934352152036,3.4028234663852886E38,1.57542003E9,,,,0,,1,,1.57542003E9
Raw,1116742,70769000000,,,-1238850265230583800,0.0,20.03332367967494,,,0,24,0.0,16431,219935923583872,17,35.52915573120117,567.1371548255868,0.3515895956583208,4,39791.501160950414,3.4028234663852886E38,1.57542003E9,,,,0,,1,,1.57542003E9
Raw,1116742,70769000000,,,-1238850265230583800,0.0,20.03332367967494,,,0,25,0.0,16431,219935931153926,50,22.60466957092285,-178.25944444509207,0.9341510066243854,4,-12276.430193455877,3.4028234663852886E38,1.57542003E9,,,,0,,1,,1.57542003E9
Raw,1116742,70769000000,,,-1238850265230583800,0.0,20.03332367967494,,,0,29,0.0,16431,219935928331495,25,30.82227897644043,-542.2593814183483,0.5641065262828886,4,-37987.107917394154,3.4028234663852886E38,1.57542003E9,,,,0,,1,,1.57542003E9
Raw,1116742,70769000000,,,-1238850265230583800,0.0,20.03332367967494,,,0,31,0.0,39,5920032810,107,13.17038345336914,-663.708943321557,1.3599971886097473,4,-43474.504683267034,3.4028234663852886E38,1.57542003E9,,,,1,,1,,1.57542003E9
Raw,1116742,70769000000,,,-1238850265230583800,0.0,20.03332367967494,,,0,32,0.0,16431,219935924864068,92,15.03209114074707,71.05264716157839,1.2735498334661504,4,3690.0180985357943,3.4028234663852886E38,1.57542003E9,,,,1,,1,,1.57542003E9
Raw,1116743,70769000000,,,-1238850265230583800,0.0,20.03332367967494,,,0,6,0.0,16408,219935920919167,1000000000,10.190229415893555,174.73531844063348,2.99792458E8,4,32512.423867070127,3.4028234663852886E38,1.17645005E9,,,,0,,1,,1.17645005E9
Raw,1116743,70769000000,,,-1238850265230583800,0.0,20.03332367967494,,,0,24,0.0,16408,219935923583818,1000000000,28.431304931640625,569.6015550093816,2.99792458E8,4,105694.73477509696,3.4028234663852886E38,1.17645005E9,,,,0,,1,,1.17645005E9
Raw,1116743,70769000000,,,-1238850265230583800,0.0,20.03332367967494,,,0,25,0.0,16409,219935931153934,117,17.59434700012207,-176.97235455696466,1.1594594759290215,4,-24051.76365247689,3.4028234663852886E38,1.17645005E9,,,,0,,1,,1.17645005E9
Raw,1116743,70769000000,,,-1238850265230583800,0.0,20.03332367967494,,,0,32,0.0,16,4864243,1000000000,11.032035827636719,71.6967331646394,2.99792458E8,4,14676.254053487855,3.4028234663852886E38,1.17645005E9,,,,1,,1,,1.17645005E9
Raw,1116743,70769000000,,,-1238850265230583800,0.0,20.03332367967494,,,0,10,0.0,32995,57917934202468,130,19.30059242248535,98.14435303993264,1.0832797936494107,4,6530.211182313369,3.4028234663852886E38,1.59806246E9,,,,0,,3,,1.59806246E9
Raw,1116743,70769000000,,,-1238850265230583800,0.0,20.03332367967494,,,0,2,0.0,32994,57917922472702,1000000000,17.65654182434082,-119.61496291288466,2.99792458E8,4,-8598.71406993009,3.4028234663852886E38,1.59975002E9,,,,1,,3,,1.59975002E9
Raw,1116743,70769000000,,,-1238850265230583800,0.0,20.03332367967494,,,0,9,0.0,99,1925117055,118,20.532915115356445,532.2934666363394,1.0262293560643125,4,37110.275461165715,3.4028234663852886E38,1.60087501E9,,,,0,,3,,1.60087501E9
Raw,1116744,70769000000,,,-1238850265230583800,0.0,20.03332367967494,,,0,99,0.0,16,18541561,1000000000,7.998310089111328,-718.2435321896623,2.99792458E8,4,-14952.04363766905,3.4028234663852886E38,1.60143744E9,,,,1,,3,,1.60143744E9
Raw,1116744,70769000000,,,-1238850265230583800,0.0,20.03332367967494,,,0,11,0.0,17,335881,133,19.028818130493164,-539.5641407565245,1.0948055884436334,4,-32440.789775997608,3.4028234663852886E38,1.602E9,,,,0,,3,,1.602E9
Raw,1116744,70769000000,,,-1238850265230583800,0.0,20.03332367967494,,,0,1,0.0,99,1921717786,128,19.46178436279297,525.8221283689838,1.0737855662196796,4,33163.77848870339,3.4028234663852886E38,1.60256256E9,,,,0,,3,,1.60256256E9
Raw,1116744,70769000000,,,-1238850265230583800,0.0,20.03332367967494,,,0,20,0.0,17,600838,218,12.893194198608398,24.734893359034245,1.371305108637956,4,1428.6394446907177,3.4028234663852886E38,1.60312499E9,,,,0,,3,,1.60312499E9
Raw,1116744,70769000000,,,-1238850265230583800,0.0,20.03332367967494,,,0,19,0.0,17,692028,250,11.212244033813477,697.7318237103655,1.4449331998219108,4,45870.9627619725,3.4028234663852886E38,1.60368755E9,,,,1,,3,,1.60368755E9
Raw,1116744,70769000000,,,-1238850265230583800,0.0,20.03332367967494,,,0,21,0.0,99,1929299090,43,32.914119720458984,-747.3158229893161,0.004034726414829493,1,-53491.30442354803,0.0020173632074147463,1.60424998E9,,,,0,,3,,1.60424998E9
Raw,1116744,70769000000,,,-1238850265230583800,0.0,20.03332367967494,,,0,5,0.0,16,70001036747,1000000000,7.0,-53.95836103598131,2.99792458E8,2,-70.52995046868972,3.4028234663852886E38,1.56109798E9,,,,0,,5,,1.56109798E9
Raw,1116745,70769000000,,,-1238850265230583800,0.0,20.03332367967494,,,0,8,0.0,16397,219921867628753,29,20.451622009277344,80.12711399169785,1.0303368911809923,4,4986.87195797785,3.4028234663852886E38,1.56109798E9,,,,1,,5,,1.56109798E9
Raw,1116745,70769000000,,,-1238850265230583800,0.0,20.03332367967494,,,0,11,0.0,16397,219921925854504,10,33.06269836425781,-297.5413450722217,0.4629118852470355,4,-20930.346723727573,3.4028234663852886E38,1.56109798E9,,,,0,,5,,1.56109798E9
Raw,1116745,70769000000,,,-1238850265230583800,0.0,20.03332367967494,,,0,12,0.0,17,138262,49,14.25162124633789,503.36022172745174,1.3106746817720047,4,26889.28916907284,3.4028234663852886E38,1.56109798E9,,,,0,,5,,1.56109798E9
Raw,1116745,70769000000,,,-1238850265230583800,0.0,20.03332367967494,,,0,13,0.0,17,246229,55,12.797906875610352,-78.98282107578689,1.3751665444543137,4,-1575.2170267079657,3.4028234663852886E38,1.56109798E9,,,,1,,5,,1.56109798E9
Raw,1116745,70769000000,,,-1238850265230583800,0.0,20.03332367967494,,,0,24,0.0,16397,219921914871688,14,29.3101863861084,501.23494198605886,0.6332800670262313,4,32028.258370094838,3.4028234663852886E38,1.56109798E9,,,,1,,5,,1.56109798E9
Raw,1116745,70769000000,,,-1238850265230583800,0.0,20.03332367967494,,,0,25,0.0,16397,219921926928013,16,27.628433227539062,107.82117190510093,0.7074776414436874,4,6371.54383000636,3.4028234663852886E38,1.56109798E9,,,,0,,5,,1.56109798E9
Raw,1116745,70769000000,,,-1238850265230583800,0.0,20.03332367967494,,,0,7,0.0,16,70003629788,1000000000,7.0,488.8222135678209,2.99792458E8,2,493.54395405978136,3.4028234663852886E38,1.57542003E9,,,,0,,6,,1.57542003E9
Raw,1116746,70769000000,,,-1238850265230583800,0.0,20.03332367967494,,,0,13,0.0,19498,219935907938274,32,29.390378952026367,-669.4111427925623,299.7931729746838,4,-46666.326216111476,3.4028234663852886E38,1.57542003E9,,,,0,,6,,1.57542003E9
Raw,1116746,70769000000,,,-1238850265230583800,0.0,20.03332367967494,,,0,15,0.0,19498,219935918434321,34,28.157869338989258,-425.35396527841294,299.7929003150316,4,-30272.445856576687,3.4028234663852886E38,1.57542003E9,,,,1,,6,,1.57542003E9
Raw,1116746,70769000000,,,-1238850265230583800,0.0,20.03332367967494,,,0,19,0.0,18440,219935909858603,1000000000,11.605642318725586,55.798592152245675,2.99792458E8,4,2240.7713414253894,3.4028234663852886E38,1.57542003E9,,,,0,,6,,1.57542003E9
Raw,1116746,70769000000,,,-1238850265230583800,0.0,20.03332367967494,,,0,21,0.0,18440,219935911290146,1000000000,8.175174713134766,-466.79581255573726,2.99792458E8,4,-19148.9433984073,3.4028234663852886E38,1.57542003E9,,,,1,,6,,1.57542003E9
Raw,1116746,70769000000,,,-1238850265230583800,0.0,20.03332367967494,,,0,27,0.0,18474,219935921935982,1000000000,12.988410949707031,-140.94522122987576,2.99792458E8,4,-949.8540754165974,3.4028234663852886E38,1.57542003E9,,,,1,,6,,1.57542003E9
Raw,1116747,70769000000,,,-1238850265230583800,0.0,20.03332367967494,,,0,30,0.0,19498,219935921544628,69,18.461578369140625,270.6890045463342,1.1187325379994126,4,13229.465962082762,3.4028234663852886E38,1.57542003E9,,,,0,,6,,1.57542003E9
Raw,1116747,70769000000,,,-1238850265230583800,0.0,20.03332367967494,,,0,13,0.0,17466,219935907938267,28,32.57313919067383,-666.3826438708584,0.4853015961924998,4,-116882.30504622245,3.4028234663852886E38,1.17645005E9,,,,1,,6,,1.17645005E9
Raw,1116747,70769000000,,,-1238850265230583800,0.0,20.03332367967494,,,0,15,0.0,17466,219935918434238,22,30.929157257080078,-423.96170910456567,0.006519051734358072,1,-92677.05713405555,0.003259525867179036,1.17645005E9,,,,1,,6,,1.17645005E9
Raw,1116747,70769000000,,,-1238850265230583800,0.0,20.03332367967494,,,0,19,0.0,16408,219935909858575,1000000000,7.0,50.7981163785885,2.99792458E8,4,2143.8010012438885,3.4028234663852886E38,1.17645005E9,,,,1,,6,,1.17645005E9
Raw,1116747,70769000000,,,-1238850265230583800,0.0,20.03332367967494,,,0,21,0.0,16408,219935911290072,1000000000,7.0,-465.7768493530748,2.99792458E8,4,-19146.40846098397,3.4028234663852886E38,1.17645005E9,,,,1,,6,,1.17645005E9
Raw,1116747,70769000000,,,-1238850265230583800,0.0,20.03332367967494,,,0,27,0.0,16408,219935921935935,1000000000,7.0,-275.9573513870324,2.99792458E8,4,35681.600836964164,3.4028234663852886E38,1.17645005E9,,,,1,,6,,1.17645005E9
Raw,1116748,70769000000,,,-1238850265230583800,0.0,20.03332367967494,,,0,30,0.0,16408,219935921544627,1000000000,14.390962600708008,269.2607962469741,2.99792458E8,4,9769.56998891364,3.4028234663852886E38,1.17645005E9,,,,1,,6,,1.17645005E9
Raw,1117742,71769000000,,,-1238850265230583947,0.0,20.37562916106918,,,0,2,0.0,16431,219936923242741,96,14.387970924377441,-146.91159382138937,1.3022235639003057,4,-9547.708547054443,3.4028234663852886E38,1.57542003E9,,,,0,,1,,1.57542003E9
Raw,1117742,71769000000,,,-1238850265230583947,0.0,20.37562916106918,,,0,6,0.0,16431,219936920918379,74,17.64077377319336,175.25516110874764,1.159127970785499,4,12317.163878929978,3.4028234663852886E38,1.57542003E9,,,,0,,1,,1.57542003E9
Raw,1117742,71769000000,,,-1238850265230583947,0.0,20.37562916106918,,,0,12,0.0,16431,219936930663528,97,14.366060256958008,255.11534982157298,1.304543567366581,4,16343.099130161185,3.4028234663852886E38,1.57542003E9,,,,1,,1,,1.57542003E9
Raw,1117743,71769000000,,,-1238850265230583947,0.0,20.37562916106918,,,0,14,0.0,51,3616715,98,14.71484375,-193.77604513763413,299.79310480977074,4,-12649.795395851426,3.4028234663852886E38,1.57542003E9,,,,1,,1,,1.57542003E9
Raw,1117743,71769000000,,,-1238850265230583947,0.0,20.37562916106918,,,0,24,0.0,16431,219936923581984,23,31.916034698486328,567.3130884661575,0.5140672893486986,4,40358.72350686303,3.4028234663852886E38,1.57542003E9,,,,0,,1,,1.57542003E9
Raw,1117743,71769000000,,,-1238850265230583947,0.0,20.37562916106918,,,0,25,0.0,16431,219936931154465,67,18.872636795043945,-178.956004650277,1.1019762843403007,4,-12454.266802369759,3.4028234663852886E38,1.57542003E9,,,,0,,1,,1.57542003E9
Raw,1117743,71769000000,,,-1238850265230583947,0.0,20.37562916106918,,,0,29,0.0,16431,219936928333302,22,32.386959075927734,-542.315685636524,0.49374502554129185,4,-38529.44154254917,3.4028234663852886E38,1.57542003E9,,,,0,,1,,1.57542003E9
Raw,1117743,71769000000,,,-1238850265230583947,0.0,20.37562916106918,,,0,31,0.0,39,920035059,111,12.62681770324707,-662.6858561416552,1.3844410998009877,4,-44136.52894256996,3.4028234663852886E38,1.57542003E9,,,,1,,1,,1.57542003E9
Raw,1117744,71769000000,,,-1238850265230583947,0.0,20.37562916106918,,,0,32,0.0,16431,219936924863762,123,11.405099868774414,70.99554626598149,1.4366514291560595,4,3761.575785925322,3.4028234663852886E38,1.57542003E9,,,,1,,1,,1.57542003E9
Raw,1117744,71769000000,,,-1238850265230583947,0.0,20.37562916106918,,,0,6,0.0,16408,219936920918565,1000000000,8.712165832519531,176.26001417440966,2.99792458E8,4,32684.15602429095,3.4028234663852886E38,1.17645005E9,,,,1,,1,,1.17645005E9
Raw,1117744,71769000000,,,-1238850265230583947,0.0,20.37562916106918,,,0,24,0.0,16408,219936923581914,1000000000,24.312667846679688,566.9652429148857,2.99792458E8,4,106266.20876499222,3.4028234663852886E38,1.17645005E9,,,,1,,1,,1.17645005E9
Raw,1117744,71769000000,,,-1238850265230583947,0.0,20.37562916106918,,,0,25,0.0,16408,219936931154527,1000000000,12.262556076049805,-177.37563522377081,2.99792458E8,4,-24230.185073008448,3.4028234663852886E38,1.17645005E9,,,,0,,1,,1.17645005E9
Raw,1117744,71769000000,,,-1238850265230583947,0.0,20.37562916106918,,,0,32,0.0,16,4863981,1000000000,7.0,71.50644228925842,2.99792458E8,4,14748.094144034629,3.4028234663852886E38,1.17645005E9,,,,1,,1,,1.17645005E9
Raw,1117745,71769000000,,,-1238850265230583947,0.0,20.37562916106918,,,0,10,0.0,32995,57918934202146,185,14.949993133544922,97.66064629634678,1.2789212818679836,4,6628.777749976683,3.4028234663852886E38,1.59806246E9,,,,0,,3,,1.59806246E9
Raw,1117745,71769000000,,,-1238850265230583947,0.0,20.37562916106918,,,0,2,0.0,32995,57918922472989,196,14.217586517333984,-118.20968358615028,1.3097469999085245,4,-8718.124400990228,3.4028234663852886E38,1.59975002E9,,,,1,,3,,1.59975002E9
Raw,1117745,71769000000,,,-1238850265230583947,0.0,20.37562916106918,,,0,9,0.0,99,925115263,181,15.20112133026123,532.2605089008819,1.2659939126165582,4,37642.90215789552,3.4028234663852886E38,1.60087501E9,,,,0,,3,,1.60087501E9
Raw,1117745,71769000000,,,-1238850265230583947,0.0,20.37562916106918,,,0,99,0.0,16,18544022,1000000000,7.138080596923828,-718.3347368433174,2.99792458E8,4,-15670.626191720281,3.4028234663852886E38,1.60143744E9,,,,0,,3,,1.60143744E9
Raw,1117745,71769000000,,,-1238850265230583947,0.0,20.37562916106918,,,0,11,0.0,17,337560,197,14.182682991027832,-540.1967793145009,1.312731345007803,4,-32980.93460900473,3.4028234663852886E38,1.602E9,,,,0,,3,,1.602E9
Raw,1117745,71769000000,,,-1238850265230583947,0.0,20.37562916106918,,,0,1,0.0,99,921716018,182,15.180644989013672,526.1175551021236,1.2663033174171794,4,33689.34045534798,3.4028234663852886E38,1.60256256E9,,,,0,,3,,1.60256256E9
Raw,1117746,71769000000,,,-1238850265230583947,0.0,20.37562916106918,,,0,20,0.0,17,600711,248,12.033002853393555,24.818001299111586,299.79491117996645,4,1453.4257069785062,3.4028234663852886E38,1.60312499E9,,,,1,,3,,1.60312499E9
Raw,1117746,71769000000,,,-1238850265230583947,0.0,20.37562916106918,,,0,19,0.0,17,689730,268,10.352022171020508,696.7279590359426,1.4836159891677259,4,46569.44147845714,3.4028234663852886E38,1.60368755E9,,,,1,,3,,1.60368755E9
Raw,1117746,71769000000,,,-1238850265230583947,0.0,20.37562916106918,,,0,21,0.0,99,929301577,41,33.63410186767578,-747.3703198152798,0.00371376913972199,1,-54238.674743363306,0.0018568845698609948,1.60424998E9,,,,0,,3,,1.60424998E9
Raw,1117746,71769000000,,,-1238850265230583947,0.0,20.37562916106918,,,0,5,0.0,16,71001036931,1000000000,7.0,-53.95836103598131,2.99792458E8,2,-70.53121635395391,3.4028234663852886E38,1.56109798E9,,,,0,,5,,1.56109798E9
Raw,1117746,71769000000,,,-1238850265230583947,0.0,20.37562916106918,,,0,8,0.0,16397,219922867628495,50,16.016178131103516,80.1616224789272,299.7938205413577,4,5066.9114439558825,3.4028234663852886E38,1.56109798E9,,,,1,,5,,1.56109798E9
Raw,1117747,71769000000,,,-1238850265230583947,0.0,20.37562916106918,,,0,11,0.0,16397,219922925855492,11,32.2987060546875,-297.48707970282703,0.004450682550668716,1,-21227.8338034304,0.0982450844304726,1.56109798E9,,,,0,,5,,1.56109798E9
Raw,1117747,71769000000,,,-1238850265230583947,0.0,20.37562916106918,,,0,12,0.0,17,136702,75,11.775749206542969,503.4750455234771,299.79535425190124,4,27395.360699448363,3.4028234663852886E38,1.56109798E9,,,,1,,5,,1.56109798E9
Raw,1117747,71769000000,,,-1238850265230583947,0.0,20.37562916106918,,,0,13,0.0,17,246468,65,10.63967514038086,-78.36057766704994,1.472219800902507,4,-1654.5259147888673,3.4028234663852886E38,1.56109798E9,,,,1,,5,,1.56109798E9
Raw,1117748,71769000000,,,-1238850265230583947,0.0,20.37562916106918,,,0,24,0.0,16397,219922914869982,21,24.632946014404297,500.89353801906987,0.8436098957947733,4,32529.290682403647,3.4028234663852886E38,1.56109798E9,,,,0,,5,,1.56109798E9
Raw,1117748,71769000000,,,-1238850265230583947,0.0,20.37562916106918,,,0,25,0.0,16397,219922926927659,21,24.38521957397461,107.44180008154552,0.8533213323175395,4,6478.952826657671,3.4028234663852886E38,1.56109798E9,,,,0,,5,,1.56109798E9
Raw,1117748,71769000000,,,-1238850265230583947,0.0,20.37562916106918,,,0,7,0.0,16,71003628161,1000000000,7.0,488.8222135678209,2.99792458E8,2,493.5554220293914,3.4028234663852886E38,1.57542003E9,,,,0,,6,,1.57542003E9
Raw,1117748,71769000000,,,-1238850265230583947,0.0,20.37562916106918,,,0,13,0.0,19498,219936907940514,28,29.46078872680664,-668.6322226910052,0.005764744244515896,1,-47334.95843880248,0.002882372122257948,1.57542003E9,,,,0,,6,,1.57542003E9
Raw,1117748,71769000000,,,-1238850265230583947,0.0,20.37562916106918,,,0,15,0.0,19498,219936918435688,34,27.071022033691406,-424.1978077778258,0.007590464316308498,1,-30696.643664354513,0.003795232158154249,1.57542003E9,,,,0,,6,,1.57542003E9
Raw,1117749,71769000000,,,-1238850265230583947,0.0,20.37562916106918,,,0,19,0.0,18440,219936909858411,1000000000,11.946794509887695,56.10120602340464,2.99792458E8,4,2296.8464238618894,3.4028234663852886E38,1.57542003E9,,,,0,,6,,1.57542003E9
Raw,1117749,71769000000,,,-1238850265230583947,0.0,20.37562916106918,,,0,21,0.0,18440,219936911291700,1000000000,8.815129280090332,-467.4224185189091,2.99792458E8,4,-19616.923415581652,3.4028234663852886E38,1.57542003E9,,,,0,,6,,1.57542003E9
Raw,1117749,71769000000,,,-1238850265230583947,0.0,20.37562916106918,,,0,27,0.0,18474,219936921936452,1000000000,12.239646911621094,-140.81123457267046,2.99792458E8,4,-1091.1896145061876,3.4028234663852886E38,1.57542003E9,,,,0,,6,,1.57542003E9
Raw,1117749,71769000000,,,-1238850265230583947,0.0,20.37562916106918,,,0,30,0.0,19498,219936921543717,95,14.61739730834961,270.8828826002642,1.2916007545020438,4,13498.480814372355,3.4028234663852886E38,1.57542003E9,,,,0,,6,,1.57542003E9
Raw,1117749,71769000000,,,-1238850265230583947,0.0,20.37562916106918,,,0,13,0.0,17466,219936907940500,31,27.27367401123047,-669.6876196798753,0.7236129553480244,4,-117543.66029987347,3.4028234663852886E38,1.17645005E9,,,,1,,6,,1.17645005E9
