# 
# Header Description:
# 
# Version: v2.0.0.1 Platform: 8.1.0 Manufacturer: Xiaomi Model: MI 8 Pro
# 
# Raw,ElapsedRealtimeMillis,TimeNanos,LeapSecond,TimeUncertaintyNanos,FullBiasNanos,BiasNanos,BiasUncertaintyNanos,DriftNanosPerSecond,DriftUncertaintyNanosPerSecond,HardwareClockDiscontinuityCount,Svid,TimeOffsetNanos,State,ReceivedSvTimeNanos,ReceivedSvTimeUncertaintyNanos,Cn0DbHz,PseudorangeRateMetersPerSecond,PseudorangeRateUncertaintyMetersPerSecond,AccumulatedDeltaRangeState,AccumulatedDeltaRangeMeters,AccumulatedDeltaRangeUncertaintyMeters,CarrierFrequencyHz,CarrierCycles,CarrierPhase,CarrierPhaseUncertainty,MultipathIndicator,SnrInDb,ConstellationType,AgcDb,CarrierFrequencyHz
# 
# Fix,Provider,Latitude,Longitude,Altitude,Speed,Accuracy,(UTC)TimeInMs
# 
# Nav,Svid,Type,Status,MessageId,Sub-messageId,Data(Bytes)
# 
Raw,1964721,55870000000,,,-1238851128130049107,0.0,16.82604867495412,,,0,2,0.0,38,1923864713,1000000000,12.47357177734375,-55.70631816151723,2.99792458E8,4,-3283.0399168312333,3.4028234663852886E38,1.57542003E9,,,,0,,1,,1.57542003E9
Raw,1964721,55870000000,,,-1238851128130049107,0.0,16.82604867495412,,,0,6,0.0,16430,220783920622892,1000000000,18.339767456054688,270.69905887100845,2.99792458E8,4,14909.554524754654,3.4028234663852886E38,1.57542003E9,,,,1,,1,,1.57542003E9
Raw,1964721,55870000000,,,-1238851128130049107,0.0,16.82604867495412,,,0,12,0.0,16431,220783930219254,63,19.702632904052734,296.78266959002394,1.0644840511173577,4,16404.424604567495,3.4028234663852886E38,1.57542003E9,,,,0,,1,,1.57542003E9
Raw,1964721,55870000000,,,-1238851128130049107,0.0,16.82604867495412,,,0,14,0.0,51,4357739,114,12.368865966796875,-96.13018210680411,1.3932209269896978,4,-2300.12127742419,3.4028234663852886E38,1.57542003E9,,,,0,,1,,1.57542003E9
Raw,1964722,55870000000,,,-1238851128130049107,0.0,16.82604867495412,,,0,24,0.0,16431,220783922261483,58,20.555553436279297,602.5405451158517,1.0246977756743187,4,33938.291089326165,3.4028234663852886E38,1.57542003E9,,,,0,,1,,1.57542003E9
Raw,1964722,55870000000,,,-1238851128130049107,0.0,16.82604867495412,,,0,25,0.0,16431,220783931908320,69,18.587186813354492,-119.93086468178046,1.1149481871140186,4,-6877.47822725576,3.4028234663852886E38,1.57542003E9,,,,0,,1,,1.57542003E9
Raw,1964723,55870000000,,,-1238851128130049107,0.0,16.82604867495412,,,0,29,0.0,16431,220783930096068,65,19.22663688659668,-469.108375395723,1.0858668651148453,4,-25310.494903612347,3.4028234663852886E38,1.57542003E9,,,,0,,1,,1.57542003E9
Raw,1964723,55870000000,,,-1238851128130049107,0.0,16.82604867495412,,,0,31,0.0,16431,220783922207710,62,19.91372299194336,-638.4629089715895,1.0535504390052188,4,-33078.91375268868,3.4028234663852886E38,1.57542003E9,,,,0,,1,,1.57542003E9
Raw,1964723,55870000000,,,-1238851128130049107,0.0,16.82604867495412,,,0,6,0.0,16408,220783920622976,1000000000,10.569225311279297,267.02785002542566,2.99792458E8,4,63679.96740063775,3.4028234663852886E38,1.17645005E9,,,,0,,1,,1.17645005E9
Raw,1964724,55870000000,,,-1238851128130049107,0.0,16.82604867495412,,,0,24,0.0,16408,220783922261543,1000000000,14.427770614624023,604.9368826339705,2.99792458E8,4,100683.67163255959,3.4028234663852886E38,1.17645005E9,,,,0,,1,,1.17645005E9
Raw,1964727,55870000000,,,-1238851128130049107,0.0,16.82604867495412,,,0,25,0.0,16408,220783931908263,1000000000,7.0,-109.78029115033098,2.99792458E8,4,-27732.48271616274,3.4028234663852886E38,1.17645005E9,,,,1,,1,,1.17645005E9
Raw,1964728,55870000000,,,-1238851128130049107,0.0,16.82604867495412,,,0,2,0.0,99,1922962547,93,23.487018585205078,6.783568716637809,0.8929991696323056,4,276.36929064001,3.4028234663852886E38,1.59975002E9,,,,0,,3,,1.59975002E9
Raw,1964728,55870000000,,,-1238851128130049107,0.0,16.82604867495412,,,0,9,0.0,32995,58765923892805,169,16.079631805419922,570.6470343632188,1.2262684131164985,4,32372.864436115804,3.4028234663852886E38,1.60087501E9,,,,0,,3,,1.60087501E9
Raw,1964729,55870000000,,,-1238851128130049107,0.0,16.82604867495412,,,0,12,0.0,51,927246,261,10.677907943725586,-733.3408334608325,1.4722419012454084,4,-41024.79768469812,3.4028234663852886E38,1.60143744E9,,,,1,,3,,1.60143744E9
Raw,1964730,55870000000,,,-1238851128130049107,0.0,16.82604867495412,,,0,11,0.0,51,12138935,112,21.139053344726562,-498.47862556214614,1.0002352256396674,4,-28418.545712972995,3.4028234663852886E38,1.602E9,,,,0,,3,,1.602E9
Raw,1964730,55870000000,,,-1238851128130049107,0.0,16.82604867495412,,,0,1,0.0,99,1920484911,165,16.351600646972656,578.8807082924559,1.2170227479771114,4,32688.24985539092,3.4028234663852886E38,1.60256256E9,,,,0,,3,,1.60256256E9
Raw,1964731,55870000000,,,-1238851128130049107,0.0,16.82604867495412,,,0,20,0.0,99,1933659540,202,13.884456634521484,167.29743578874752,1.3267397671770613,4,9400.420274631326,3.4028234663852886E38,1.60312499E9,,,,1,,3,,1.60312499E9
Raw,1964732,55870000000,,,-1238851128130049107,0.0,16.82604867495412,,,0,19,0.0,50,984507,1000000000,12.600526809692383,738.7464473951763,2.99792458E8,4,37222.82259434779,3.4028234663852886E38,1.60368755E9,,,,1,,3,,1.60368755E9
Raw,1964732,55870000000,,,-1238851128130049107,0.0,16.82604867495412,,,0,21,0.0,99,1931627690,162,16.571266174316406,-660.1597326290976,1.2055513386652699,4,-37794.301113447626,3.4028234663852886E38,1.60424998E9,,,,0,,3,,1.60424998E9
Raw,1964732,55870000000,,,-1238851128130049107,0.0,16.82604867495412,,,0,5,0.0,16,1527988,1000000000,7.0,-57.32945255034542,2.99792458E8,4,-2700.2594545163543,3.4028234663852886E38,1.56109798E9,,,,0,,5,,1.56109798E9
Raw,1964733,55870000000,,,-1238851128130049107,0.0,16.82604867495412,,,0,11,0.0,16396,220769926913601,1000000000,8.423568725585938,-219.95101388135902,2.99792458E8,4,-11705.540849187162,3.4028234663852886E38,1.56109798E9,,,,1,,5,,1.56109798E9
Raw,1964733,55870000000,,,-1238851128130049107,0.0,16.82604867495412,,,0,13,0.0,16,11765048,1000000000,7.0,-49.49126292598493,2.99792458E8,4,-1368.4920644741258,3.4028234663852886E38,1.56109798E9,,,,1,,5,,1.56109798E9
Raw,1964733,55870000000,,,-1238851128130049107,0.0,16.82604867495412,,,0,24,0.0,16397,220769913756789,50,13.988523483276367,524.302868787023,1.3220773936324175,4,27830.04441352723,3.4028234663852886E38,1.56109798E9,,,,0,,5,,1.56109798E9
Raw,1964734,55870000000,,,-1238851128130049107,0.0,16.82604867495412,,,0,25,0.0,16397,220769926872412,62,11.238943099975586,168.733295599597,1.444484536234091,4,7856.20684258181,3.4028234663852886E38,1.56109798E9,,,,1,,5,,1.56109798E9
Raw,1964734,55870000000,,,-1238851128130049107,0.0,16.82604867495412,,,0,28,0.0,16,10981462,1000000000,7.0,-715.3217113568749,2.99792458E8,4,-28806.867762486007,3.4028234663852886E38,1.56109798E9,,,,1,,5,,1.56109798E9
Raw,1964734,55870000000,,,-1238851128130049107,0.0,16.82604867495412,,,0,4,0.0,18474,220783903427120,1000000000,18.74676513671875,-323.96319008976957,2.99792458E8,4,-261.00947976929126,3.4028234663852886E38,1.57542003E9,,,,0,,6,,1.57542003E9
Raw,1964734,55870000000,,,-1238851128130049107,0.0,16.82604867495412,,,0,13,0.0,18474,220783910160202,1000000000,20.756240844726562,-665.696291361402,2.99792458E8,4,-1294.2656807377348,3.4028234663852886E38,1.57542003E9,,,,0,,6,,1.57542003E9
Raw,1964735,55870000000,,,-1238851128130049107,0.0,16.82604867495412,,,0,15,0.0,18474,220783919881053,1000000000,17.46478843688965,-361.72934667847835,2.99792458E8,4,-1072.0013425833035,3.4028234663852886E38,1.57542003E9,,,,0,,6,,1.57542003E9
Raw,1964735,55870000000,,,-1238851128130049107,0.0,16.82604867495412,,,0,19,0.0,16,55001935474,1000000000,7.067371368408203,124.01565561665342,2.99792458E8,2,308.582671958298,3.4028234663852886E38,1.57542003E9,,,,0,,6,,1.57542003E9
Raw,1964735,55870000000,,,-1238851128130049107,0.0,16.82604867495412,,,0,21,0.0,18440,220783912941549,1000000000,18.413148880004883,-464.1305644556535,2.99792458E8,4,-2139.5179754974984,3.4028234663852886E38,1.57542003E9,,,,0,,6,,1.57542003E9
Raw,1964736,55870000000,,,-1238851128130049107,0.0,16.82604867495412,,,0,27,0.0,18474,220783922627069,1000000000,11.425995826721191,-112.22080805271747,2.99792458E8,4,-6379.657403773118,3.4028234663852886E38,1.57542003E9,,,,1,,6,,1.57542003E9
Raw,1964736,55870000000,,,-1238851128130049107,0.0,16.82604867495412,,,0,30,0.0,19498,220783921081438,114,12.316078186035156,293.4642312106805,1.395724922467358,4,16537.47302754838,3.4028234663852886E38,1.57542003E9,,,,1,,6,,1.57542003E9
Raw,1964736,55870000000,,,-1238851128130049107,0.0,16.82604867495412,,,0,4,0.0,16408,220783903426905,1000000000,18.479267120361328,-323.1937104688541,2.99792458E8,6,-1298.4709082839922,3.4028234663852886E38,1.17645005E9,,,,0,,6,,1.17645005E9
Raw,1964737,55870000000,,,-1238851128130049107,0.0,16.82604867495412,,,0,13,0.0,16408,220783910160118,1000000000,18.730730056762695,-663.7927861646031,2.99792458E8,4,-9722.138438926426,3.4028234663852886E38,1.17645005E9,,,,0,,6,,1.17645005E9
Raw,1964737,55870000000,,,-1238851128130049107,0.0,16.82604867495412,,,0,15,0.0,16408,220783919881015,1000000000,13.287208557128906,-372.38693083316116,2.99792458E8,4,-5857.010083864255,3.4028234663852886E38,1.17645005E9,,,,0,,6,,1.17645005E9
Raw,1964737,55870000000,,,-1238851128130049107,0.0,16.82604867495412,,,0,21,0.0,16408,220783912941496,1000000000,13.138166427612305,-459.85287533747555,2.99792458E8,4,-6696.138432646658,3.4028234663852886E38,1.17645005E9,,,,0,,6,,1.17645005E9
Raw,1964737,55870000000,,,-1238851128130049107,0.0,16.82604867495412,,,0,27,0.0,16408,220783922626176,1000000000,7.0,-66.22455193239946,2.99792458E8,4,-10559.915166631594,3.4028234663852886E38,1.17645005E9,,,,1,,6,,1.17645005E9
Raw,1964738,55870000000,,,-1238851128130049107,0.0,16.82604867495412,,,0,30,0.0,16408,220783921081485,1000000000,7.0,290.87911096588186,2.99792458E8,4,30298.51011701797,3.4028234663852886E38,1.17645005E9,,,,0,,6,,1.17645005E9
Raw,1965704,56870000000,,,-1238851128130049267,0.0,17.565308014125517,,,0,2,0.0,38,2923864908,1000000000,7.141801834106445,-55.98878078025709,2.99792458E8,4,-3338.1470769992047,3.4028234663852886E38,1.57542003E9,,,,1,,1,,1.57542003E9
Raw,1965704,56870000000,,,-1238851128130049267,0.0,17.565308014125517,,,0,6,0.0,16430,220784920621978,1000000000,16.038448333740234,270.52508497168776,2.99792458E8,4,15181.276090541867,3.4028234663852886E38,1.57542003E9,,,,1,,1,,1.57542003E9
Raw,1965704,56870000000,,,-1238851128130049267,0.0,17.565308014125517,,,0,12,0.0,16431,220784930218279,64,19.51384925842285,296.30496987940023,1.0729732454834533,4,16699.575149947843,3.4028234663852886E38,1.57542003E9,,,,0,,1,,1.57542003E9
Raw,1965705,56870000000,,,-1238851128130049267,0.0,17.565308014125517,,,0,14,0.0,51,4358120,118,11.879594802856445,-95.22699700894964,1.415223016559513,4,-2407.9188415490653,3.4028234663852886E38,1.57542003E9,,,,1,,1,,1.57542003E9
Raw,1965705,56870000000,,,-1238851128130049267,0.0,17.565308014125517,,,0,24,0.0,16431,220784922259492,60,20.297210693359375,602.4832184239804,1.036314767666659,4,34542.02892595395,3.4028234663852886E38,1.57542003E9,,,,1,,1,,1.57542003E9
Raw,1965705,56870000000,,,-1238851128130049267,0.0,17.565308014125517,,,0,25,0.0,16431,220784931908711,65,19.29262924194336,-120.44586764106839,1.0832253415997317,4,-6997.701786149505,3.4028234663852886E38,1.57542003E9,,,,0,,1,,1.57542003E9
Raw,1965705,56870000000,,,-1238851128130049267,0.0,17.565308014125517,,,0,29,0.0,16431,220784930097688,66,19.130672454833984,-468.4222614634623,1.090182689306642,4,-25780.538589223215,3.4028234663852886E38,1.57542003E9,,,,0,,1,,1.57542003E9
Raw,1965705,56870000000,,,-1238851128130049267,0.0,17.565308014125517,,,0,31,0.0,16431,220784922209841,75,17.515941619873047,-636.7564003734924,1.161376347839238,4,-33715.95283963767,3.4028234663852886E38,1.57542003E9,,,,0,,1,,1.57542003E9
Raw,1965706,56870000000,,,-1238851128130049267,0.0,17.565308014125517,,,0,6,0.0,16408,220784920622101,1000000000,8.206136703491211,268.26606567089937,2.99792458E8,4,63946.53373316743,3.4028234663852886E38,1.17645005E9,,,,1,,1,,1.17645005E9
Raw,1965706,56870000000,,,-1238851128130049267,0.0,17.565308014125517,,,0,24,0.0,16408,220784922259545,1000000000,13.963933944702148,600.4501998923947,2.99792458E8,4,101283.83128697154,3.4028234663852886E38,1.17645005E9,,,,1,,1,,1.17645005E9
Raw,1965706,56870000000,,,-1238851128130049267,0.0,17.565308014125517,,,0,25,0.0,16408,220784931908617,1000000000,7.0,-107.90112934810344,2.99792458E8,4,-27839.240273261494,3.4028234663852886E38,1.17645005E9,,,,1,,1,,1.17645005E9
Raw,1965706,56870000000,,,-1238851128130049267,0.0,17.565308014125517,,,0,2,0.0,99,922962500,130,19.348670959472656,6.630879311415619,1.0790959058420442,4,281.97818368558944,3.4028234663852886E38,1.59975002E9,,,,0,,3,,1.59975002E9
Raw,1965706,56870000000,,,-1238851128130049267,0.0,17.565308014125517,,,0,9,0.0,32995,58766923890825,179,15.356136322021484,569.797086062453,1.2588027805594368,4,32943.73783749102,3.4028234663852886E38,1.60087501E9,,,,1,,3,,1.60087501E9
Raw,1965706,56870000000,,,-1238851128130049267,0.0,17.565308014125517,,,0,12,0.0,50,929768,1000000000,10.306671142578125,-733.4174508230958,2.99792458E8,4,-41758.42317763871,3.4028234663852886E38,1.60143744E9,,,,1,,3,,1.60143744E9
Raw,1965707,56870000000,,,-1238851128130049267,0.0,17.565308014125517,,,0,11,0.0,51,12140733,117,20.635639190673828,-498.7013884979792,1.0228734323081778,4,-28917.71736662975,3.4028234663852886E38,1.602E9,,,,0,,3,,1.602E9
Raw,1965707,56870000000,,,-1238851128130049267,0.0,17.565308014125517,,,0,1,0.0,99,920482965,213,13.233386993408203,578.9717084513718,1.3572448971109345,4,33267.722277570065,3.4028234663852886E38,1.60256256E9,,,,0,,3,,1.60256256E9
Raw,1965707,56870000000,,,-1238851128130049267,0.0,17.565308014125517,,,0,20,0.0,99,933658812,230,13.024263381958008,165.82452834765775,299.79491117996645,4,9567.477846114942,3.4028234663852886E38,1.60312499E9,,,,1,,3,,1.60312499E9
Raw,1965707,56870000000,,,-1238851128130049267,0.0,17.565308014125517,,,0,19,0.0,51,981197,240,11.740320205688477,741.5975130482225,1.4208787073233626,4,37961.61537345803,3.4028234663852886E38,1.60368755E9,,,,1,,3,,1.60368755E9
Raw,1965707,56870000000,,,-1238851128130049267,0.0,17.565308014125517,,,0,21,0.0,99,931629899,193,14.422731399536133,-659.4101230803349,1.3021689787160309,4,-38453.48256134792,3.4028234663852886E38,1.60424998E9,,,,0,,3,,1.60424998E9
Raw,1965708,56870000000,,,-1238851128130049267,0.0,17.565308014125517,,,0,5,0.0,16,1528172,1000000000,7.0,-57.32945255034542,2.99792458E8,4,-2757.214555415895,3.4028234663852886E38,1.56109798E9,,,,0,,5,,1.56109798E9
Raw,1965708,56870000000,,,-1238851128130049267,0.0,17.565308014125517,,,0,11,0.0,16396,220770926914448,1000000000,7.0,-214.82453526593702,2.99792458E8,4,-11917.168276311344,3.4028234663852886E38,1.56109798E9,,,,1,,5,,1.56109798E9
Raw,1965708,56870000000,,,-1238851128130049267,0.0,17.565308014125517,,,0,13,0.0,16,11765221,1000000000,7.0,-52.45820893120862,2.99792458E8,4,-1420.386854571851,3.4028234663852886E38,1.56109798E9,,,,1,,5,,1.56109798E9
Raw,1965708,56870000000,,,-1238851128130049267,0.0,17.565308014125517,,,0,24,0.0,16396,220770913755025,1000000000,8.656721115112305,526.6849257558588,2.99792458E8,4,28355.598795779984,3.4028234663852886E38,1.56109798E9,,,,0,,5,,1.56109798E9
Raw,1965708,56870000000,,,-1238851128130049267,0.0,17.565308014125517,,,0,25,0.0,16397,220770926871921,73,9.29964828491211,169.2382442342107,1.5001983024774352,4,8026.646801064562,3.4028234663852886E38,1.56109798E9,,,,0,,5,,1.56109798E9
Raw,1965708,56870000000,,,-1238851128130049267,0.0,17.565308014125517,,,0,28,0.0,16,10983839,1000000000,7.0,-714.9470088298631,2.99792458E8,4,-29521.73570156622,3.4028234663852886E38,1.56109798E9,,,,1,,5,,1.56109798E9
Raw,1965709,56870000000,,,-1238851128130049267,0.0,17.565308014125517,,,0,4,0.0,18474,220784903428190,1000000000,17.886560440063477,-323.96319008976957,2.99792458E8,4,-584.8327093712221,3.4028234663852886E38,1.57542003E9,,,,0,,6,,1.57542003E9
Raw,1965709,56870000000,,,-1238851128130049267,0.0,17.565308014125517,,,0,13,0.0,18474,220784910162438,1000000000,18.822975158691406,-667.0578854994883,2.99792458E8,4,-1961.639162726608,3.4028234663852886E38,1.57542003E9,,,,0,,6,,1.57542003E9
Raw,1965709,56870000000,,,-1238851128130049267,0.0,17.565308014125517,,,0,15,0.0,16,56003882254,1000000000,13.821967124938965,-361.65044579162804,2.99792458E8,2,-351.78383914422506,3.4028234663852886E38,1.57542003E9,,,,0,,6,,1.57542003E9
Raw,1965709,56870000000,,,-1238851128130049267,0.0,17.565308014125517,,,0,19,0.0,18474,220784909935059,1000000000,14.05367660522461,124.2782950266182,2.99792458E8,4,407.2789274186534,3.4028234663852886E38,1.57542003E9,,,,0,,6,,1.57542003E9
Raw,1965710,56870000000,,,-1238851128130049267,0.0,17.565308014125517,,,0,21,0.0,18440,220784912943098,1000000000,17.552942276000977,-464.3162797612463,2.99792458E8,4,-2602.991785581578,3.4028234663852886E38,1.57542003E9,,,,0,,6,,1.57542003E9
Raw,1965710,56870000000,,,-1238851128130049267,0.0,17.565308014125517,,,0,27,0.0,18474,220784922627436,1000000000,10.565790176391602,-111.72245437344094,2.99792458E8,4,-6485.212316009981,3.4028234663852886E38,1.57542003E9,,,,0,,6,,1.57542003E9
Raw,1965710,56870000000,,,-1238851128130049267,0.0,17.565308014125517,,,0,30,0.0,18474,220784921080530,1000000000,11.45587158203125,292.9446782434468,2.99792458E8,4,16819.657622631912,3.4028234663852886E38,1.57542003E9,,,,1,,6,,1.57542003E9
Raw,1965710,56870000000,,,-1238851128130049267,0.0,17.565308014125517,,,0,4,0.0,16408,220784903427990,1000000000,13.427766799926758,-327.21912124385017,2.99792458E8,4,-1623.106729413183,3.4028234663852886E38,1.17645005E9,,,,0,,6,,1.17645005E9
Raw,1965710,56870000000,,,-1238851128130049267,0.0,17.565308014125517,,,0,13,0.0,16408,220784910162327,1000000000,13.679235458374023,-664.2832327139663,2.99792458E8,4,-10386.061331393616,3.4028234663852886E38,1.17645005E9,,,,0,,6,,1.17645005E9
Raw,1965711,56870000000,,,-1238851128130049267,0.0,17.565308014125517,,,0,19,0.0,16408,220784909935010,1000000000,7.0,121.82263699292145,2.99792458E8,4,7929.421540058915,3.4028234663852886E38,1.17645005E9,,,,0,,6,,1.17645005E9
Raw,1965711,56870000000,,,-1238851128130049267,0.0,17.565308014125517,,,0,21,0.0,16408,220784912943047,1000000000,9.281967163085938,-451.9866443720109,2.99792458E8,4,-7160.946337187737,3.4028234663852886E38,1.17645005E9,,,,0,,6,,1.17645005E9
Raw,1965711,56870000000,,,-1238851128130049267,0.0,17.565308014125517,,,0,27,0.0,16408,220784922626338,1000000000,7.0,-60.815291175207705,2.99792458E8,4,-10616.80770807829,3.4028234663852886E38,1.17645005E9,,,,1,,6,,1.17645005E9
Raw,1965711,56870000000,,,-1238851128130049267,0.0,17.565308014125517,,,0,30,0.0,16408,220784921080520,1000000000,7.0,290.76745683831314,2.99792458E8,4,30589.350618887198,3.4028234663852886E38,1.17645005E9,,,,0,,6,,1.17645005E9
Raw,1966788,57870000000,,,-1238851128130049428,0.0,18.372441215727438,,,0,2,0.0,38,3923865211,1000000000,7.0,-54.9227284036013,2.99792458E8,4,-3396.271546901329,3.4028234663852886E38,1.57542003E9,,,,0,,1,,1.57542003E9
Raw,1966788,57870000000,,,-1238851128130049428,0.0,18.372441215727438,,,0,6,0.0,16430,220785920621070,1000000000,14.843765258789062,268.7832328661765,2.99792458E8,4,15452.052629027658,3.4028234663852886E38,1.57542003E9,,,,1,,1,,1.57542003E9
Raw,1966789,57870000000,,,-1238851128130049428,0.0,18.372441215727438,,,0,12,0.0,16430,220785930217270,1000000000,20.057804107666016,297.0429232280321,2.99792458E8,4,16995.451483223023,3.4028234663852886E38,1.57542003E9,,,,1,,1,,1.57542003E9
Raw,1966789,57870000000,,,-1238851128130049428,0.0,18.372441215727438,,,0,14,0.0,50,4358445,1000000000,11.424610137939453,-95.38783212128078,2.99792458E8,4,-2504.410616618284,3.4028234663852886E38,1.57542003E9,,,,1,,1,,1.57542003E9
Raw,1966790,57870000000,,,-1238851128130049428,0.0,18.372441215727438,,,0,24,0.0,16431,220785922257478,59,20.493213653564453,601.6583548112153,1.027500325483043,4,35143.554321674426,3.4028234663852886E38,1.57542003E9,,,,0,,1,,1.57542003E9
Raw,1966790,57870000000,,,-1238851128130049428,0.0,18.372441215727438,,,0,25,0.0,16431,220785931909107,60,20.227924346923828,-120.45818844910139,1.0411661923373279,4,-7117.651993633883,3.4028234663852886E38,1.57542003E9,,,,0,,1,,1.57542003E9
Raw,1966791,57870000000,,,-1238851128130049428,0.0,18.372441215727438,,,0,29,0.0,16431,220785930099241,67,18.892513275146484,-468.59509360048946,1.1008926352978499,4,-26248.387389643704,3.4028234663852886E38,1.57542003E9,,,,0,,1,,1.57542003E9
Raw,1966792,57870000000,,,-1238851128130049428,0.0,18.372441215727438,,,0,31,0.0,16431,220785922211961,107,13.160316467285156,-636.7009141342733,1.3572443645725514,4,-34351.9424317807,3.4028234663852886E38,1.57542003E9,,,,0,,1,,1.57542003E9
Raw,1966792,57870000000,,,-1238851128130049428,0.0,18.372441215727438,,,0,6,0.0,16408,220785920621186,1000000000,7.0,264.16785476877055,2.99792458E8,4,64212.550411699056,3.4028234663852886E38,1.17645005E9,,,,1,,1,,1.17645005E9
Raw,1966792,57870000000,,,-1238851128130049428,0.0,18.372441215727438,,,0,24,0.0,16408,220785922257540,1000000000,12.2562255859375,601.7661235387404,2.99792458E8,4,101882.77238399259,3.4028234663852886E38,1.17645005E9,,,,1,,1,,1.17645005E9
Raw,1966793,57870000000,,,-1238851128130049428,0.0,18.372441215727438,,,0,25,0.0,16408,220785931908967,1000000000,9.90109634399414,-105.2839034292603,2.99792458E8,4,-27944.127159571202,3.4028234663852886E38,1.17645005E9,,,,0,,1,,1.17645005E9
Raw,1966793,57870000000,,,-1238851128130049428,0.0,18.372441215727438,,,0,2,0.0,99,1922962432,173,15.765179634094238,6.45257427742462,1.2402415546178718,4,287.4460772791861,3.4028234663852886E38,1.59975002E9,,,,1,,3,,1.59975002E9
Raw,1966793,57870000000,,,-1238851128130049428,0.0,18.372441215727438,,,0,9,0.0,32995,58767923889203,176,15.595802307128906,569.5748002810112,1.2480250024916728,4,33512.51802345883,3.4028234663852886E38,1.60087501E9,,,,0,,3,,1.60087501E9
Raw,1966793,57870000000,,,-1238851128130049428,0.0,18.372441215727438,,,0,12,0.0,50,932134,1000000000,9.446483612060547,-733.4445122935749,2.99792458E8,4,-42491.05103637386,3.4028234663852886E38,1.60143744E9,,,,1,,3,,1.60143744E9
Raw,1966794,57870000000,,,-1238851128130049428,0.0,18.372441215727438,,,0,11,0.0,51,12142401,118,20.482622146606445,-498.53629307858273,1.0297547601608907,4,-29417.629268684686,3.4028234663852886E38,1.602E9,,,,0,,3,,1.602E9
Raw,1966794,57870000000,,,-1238851128130049428,0.0,18.372441215727438,,,0,1,0.0,99,1920480815,201,13.909915924072266,578.7383117891036,1.3268217780880693,4,33847.63816302978,3.4028234663852886E38,1.60256256E9,,,,0,,3,,1.60256256E9
Raw,1966794,57870000000,,,-1238851128130049428,0.0,18.372441215727438,,,0,20,0.0,99,1933658483,218,12.914617538452148,165.26724610105327,1.3703521312012752,4,9733.321404348471,3.4028234663852886E38,1.60312499E9,,,,0,,3,,1.60312499E9
Raw,1966794,57870000000,,,-1238851128130049428,0.0,18.372441215727438,,,0,19,0.0,50,979570,1000000000,11.126401901245117,739.5892383800724,2.99792458E8,4,38701.21371681019,3.4028234663852886E38,1.60368755E9,,,,1,,3,,1.60368755E9
Raw,1966795,57870000000,,,-1238851128130049428,0.0,18.372441215727438,,,0,21,0.0,99,1931632213,199,14.045475006103516,-659.3164644898102,1.3191343202578345,4,-39112.05943979516,3.4028234663852886E38,1.60424998E9,,,,1,,3,,1.60424998E9
Raw,1966795,57870000000,,,-1238851128130049428,0.0,18.372441215727438,,,0,5,0.0,16,1528360,1000000000,7.0,-56.954741502719514,2.99792458E8,4,-2814.4683486068516,3.4028234663852886E38,1.56109798E9,,,,0,,5,,1.56109798E9
Raw,1966795,57870000000,,,-1238851128130049428,0.0,18.372441215727438,,,0,11,0.0,16396,220771926915025,1000000000,7.0,-215.0827098740973,2.99792458E8,4,-12133.57791724309,3.4028234663852886E38,1.56109798E9,,,,1,,5,,1.56109798E9
Raw,1966796,57870000000,,,-1238851128130049428,0.0,18.372441215727438,,,0,13,0.0,16,11765395,1000000000,7.0,-52.83292423914159,2.99792458E8,4,-1473.4216976793668,3.4028234663852886E38,1.56109798E9,,,,0,,5,,1.56109798E9
Raw,1966796,57870000000,,,-1238851128130049428,0.0,18.372441215727438,,,0,24,0.0,16396,220771913753210,1000000000,7.0,526.2753227933676,2.99792458E8,4,28884.498317618887,3.4028234663852886E38,1.56109798E9,,,,1,,5,,1.56109798E9
Raw,1966796,57870000000,,,-1238851128130049428,0.0,18.372441215727438,,,0,25,0.0,16396,220771926871378,1000000000,7.0,169.38495216831313,2.99792458E8,4,8196.140760736498,3.4028234663852886E38,1.56109798E9,,,,1,,5,,1.56109798E9
Raw,1966796,57870000000,,,-1238851128130049428,0.0,18.372441215727438,,,0,28,0.0,16,10986220,1000000000,7.0,-714.9470088298631,2.99792458E8,4,-30236.682666486813,3.4028234663852886E38,1.56109798E9,,,,1,,5,,1.56109798E9
Raw,1966797,57870000000,,,-1238851128130049428,0.0,18.372441215727438,,,0,4,0.0,18474,220785903429324,1000000000,17.166933059692383,-324.80362938516555,2.99792458E8,4,-907.4080863227089,3.4028234663852886E38,1.57542003E9,,,,0,,6,,1.57542003E9
Raw,1966797,57870000000,,,-1238851128130049428,0.0,18.372441215727438,,,0,13,0.0,18474,220785910164683,1000000000,16.378162384033203,-671.8751680693354,2.99792458E8,4,-2632.0795199544755,3.4028234663852886E38,1.57542003E9,,,,0,,6,,1.57542003E9
Raw,1966798,57870000000,,,-1238851128130049428,0.0,18.372441215727438,,,0,15,0.0,18474,220785919883460,1000000000,13.063905715942383,-360.8840335917996,2.99792458E8,4,-640.8472414549852,3.4028234663852886E38,1.57542003E9,,,,0,,6,,1.57542003E9
Raw,1966798,57870000000,,,-1238851128130049428,0.0,18.372441215727438,,,0,19,0.0,18474,220785909934642,1000000000,13.294947624206543,121.94848646363192,2.99792458E8,4,532.7912861904427,3.4028234663852886E38,1.57542003E9,,,,0,,6,,1.57542003E9
Raw,1966798,57870000000,,,-1238851128130049428,0.0,18.372441215727438,,,0,21,0.0,16,57000944644,1000000000,7.0,-464.6874377127797,2.99792458E8,2,-1211.810189008201,3.4028234663852886E38,1.57542003E9,,,,0,,6,,1.57542003E9
Raw,1966799,57870000000,,,-1238851128130049428,0.0,18.372441215727438,,,0,27,0.0,18474,220785922627806,1000000000,9.977798461914062,-112.09158441881124,2.99792458E8,4,-6597.318084300071,3.4028234663852886E38,1.57542003E9,,,,0,,6,,1.57542003E9
Raw,1966799,57870000000,,,-1238851128130049428,0.0,18.372441215727438,,,0,30,0.0,18474,220785921079558,1000000000,10.59566879272461,293.13305198064836,2.99792458E8,4,17112.42851049853,3.4028234663852886E38,1.57542003E9,,,,0,,6,,1.57542003E9
Raw,1966799,57870000000,,,-1238851128130049428,0.0,18.372441215727438,,,0,4,0.0,16408,220785903429076,1000000000,8.376277923583984,-332.73032262850165,2.99792458E8,4,-1948.7979170621384,3.4028234663852886E38,1.17645005E9,,,,0,,6,,1.17645005E9
Raw,1966799,57870000000,,,-1238851128130049428,0.0,18.372441215727438,,,0,13,0.0,16408,220785910164541,1000000000,12.136558532714844,-664.7251458452411,2.99792458E8,4,-11049.858255290063,3.4028234663852886E38,1.17645005E9,,,,0,,6,,1.17645005E9
Raw,1966800,57870000000,,,-1238851128130049428,0.0,18.372441215727438,,,0,15,0.0,16408,220785919883471,1000000000,7.0,-360.48557559259143,2.99792458E8,6,-6555.14699686439,3.4028234663852886E38,1.17645005E9,,,,0,,6,,1.17645005E9
Raw,1966800,57870000000,,,-1238851128130049428,0.0,18.372441215727438,,,0,19,0.0,16408,220785909934593,1000000000,7.0,124.60009306049244,2.99792458E8,4,8052.94545593252,3.4028234663852886E38,1.17645005E9,,,,0,,6,,1.17645005E9
Raw,1966800,57870000000,,,-1238851128130049428,0.0,18.372441215727438,,,0,27,0.0,16408,220785922626538,1000000000,7.0,-55.401173667961444,2.99792458E8,4,-10668.290261908827,3.4028234663852886E38,1.17645005E9,,,,0,,6,,1.17645005E9
Raw,1966800,57870000000,,,-1238851128130049428,0.0,18.372441215727438,,,0,30,0.0,16408,220785921079529,1000000000,7.0,290.6557686282879,2.99792458E8,4,30880.133919094857,3.4028234663852886E38,1.17645005E9,,,,1,,6,,1.17645005E9
Raw,1967768,58870000000,,,-1238851128130049589,0.0,19.392728216032058,,,0,2,0.0,38,4923865405,1000000000,7.504423141479492,-58.851886061069905,2.99792458E8,4,-3454.715673814843,3.4028234663852886E38,1.57542003E9,,,,1,,1,,1.57542003E9
Raw,1967769,58870000000,,,-1238851128130049589,0.0,19.392728216032058,,,0,6,0.0,16430,220786920620141,1000000000,11.57818603515625,267.08279094534043,2.99792458E8,4,15720.100536653137,3.4028234663852886E38,1.57542003E9,,,,1,,1,,1.57542003E9
Raw,1967769,58870000000,,,-1238851128130049589,0.0,19.392728216032058,,,0,12,0.0,16431,220786930216264,56,21.002017974853516,297.7359899814235,1.0060516098606382,4,17293.380073344164,3.4028234663852886E38,1.57542003E9,,,,1,,1,,1.57542003E9
Raw,1967769,58870000000,,,-1238851128130049589,0.0,19.392728216032058,,,0,14,0.0,51,4358922,128,10.909740447998047,-96.46584317986901,1.4588363125258974,4,-2599.8880238080633,3.4028234663852886E38,1.57542003E9,,,,1,,1,,1.57542003E9
Raw,1967769,58870000000,,,-1238851128130049589,0.0,19.392728216032058,,,0,24,0.0,16431,220786922255466,62,20.342491149902344,601.0201948952822,299.7928662325751,4,35743.769708121115,3.4028234663852886E38,1.57542003E9,,,,0,,1,,1.57542003E9
Raw,1967770,58870000000,,,-1238851128130049589,0.0,19.392728216032058,,,0,25,0.0,16431,220786931909508,71,18.165191650390625,-119.95469683950404,1.1339251923982427,4,-7237.665598852051,3.4028234663852886E38,1.57542003E9,,,,0,,1,,1.57542003E9
Raw,1967770,58870000000,,,-1238851128130049589,0.0,19.392728216032058,,,0,29,0.0,16431,220786930100835,65,19.173919677734375,-468.63258430266455,1.0882383251023944,4,-26716.621087230164,3.4028234663852886E38,1.57542003E9,,,,1,,1,,1.57542003E9
Raw,1967770,58870000000,,,-1238851128130049589,0.0,19.392728216032058,,,0,31,0.0,16431,220786922214094,91,15.125266075134277,-636.8382664340602,1.2688830664798454,4,-34988.256426662985,3.4028234663852886E38,1.57542003E9,,,,0,,1,,1.57542003E9
Raw,1967770,58870000000,,,-1238851128130049589,0.0,19.392728216032058,,,0,6,0.0,16408,220786920620299,1000000000,7.0,261.7933981877394,2.99792458E8,4,64478.52011335248,3.4028234663852886E38,1.17645005E9,,,,0,,1,,1.17645005E9
Raw,1967771,58870000000,,,-1238851128130049589,0.0,19.392728216032058,,,0,24,0.0,16408,220786922255510,1000000000,12.334249496459961,599.9258072163348,2.99792458E8,4,102482.17661542603,3.4028234663852886E38,1.17645005E9,,,,0,,1,,1.17645005E9
Raw,1967771,58870000000,,,-1238851128130049589,0.0,19.392728216032058,,,0,25,0.0,16408,220786931909324,1000000000,7.0,-103.92915986493512,2.99792458E8,4,-28046.95099257015,3.4028234663852886E38,1.17645005E9,,,,0,,1,,1.17645005E9
Raw,1967771,58870000000,,,-1238851128130049589,0.0,19.392728216032058,,,0,2,0.0,99,922962047,180,15.270622253417969,7.152320659756057,1.262481289441176,4,293.7916564033723,3.4028234663852886E38,1.59975002E9,,,,1,,3,,1.59975002E9
Raw,1967772,58870000000,,,-1238851128130049589,0.0,19.392728216032058,,,0,9,0.0,32995,58768923887545,228,12.372726440429688,570.0657580672223,1.3929627790084567,4,34081.12198727833,3.4028234663852886E38,1.60087501E9,,,,1,,3,,1.60087501E9
Raw,1967772,58870000000,,,-1238851128130049589,0.0,19.392728216032058,,,0,12,0.0,50,934571,1000000000,8.638671875,-732.201525104188,2.99792458E8,4,-43228.663648014786,3.4028234663852886E38,1.60143744E9,,,,1,,3,,1.60143744E9
Raw,1967772,58870000000,,,-1238851128130049589,0.0,19.392728216032058,,,0,11,0.0,51,12144076,127,19.598325729370117,-497.7648366751889,1.0695207991453692,4,-29916.290433656406,3.4028234663852886E38,1.602E9,,,,0,,3,,1.602E9
Raw,1967773,58870000000,,,-1238851128130049589,0.0,19.392728216032058,,,0,1,0.0,99,920479026,203,13.823562622070312,577.8484870142061,1.3307046485743497,4,34427.16364336227,3.4028234663852886E38,1.60256256E9,,,,0,,3,,1.60256256E9
Raw,1967773,58870000000,,,-1238851128130049589,0.0,19.392728216032058,,,0,20,0.0,99,933657850,226,12.483779907226562,164.70628294914434,1.3897261438501518,4,9900.659271302084,3.4028234663852886E38,1.60312499E9,,,,0,,3,,1.60312499E9
Raw,1967773,58870000000,,,-1238851128130049589,0.0,19.392728216032058,,,0,19,0.0,50,977099,1000000000,10.26617431640625,739.0965423885787,2.99792458E8,4,39441.9087049477,3.4028234663852886E38,1.60368755E9,,,,0,,3,,1.60368755E9
Raw,1967774,58870000000,,,-1238851128130049589,0.0,19.392728216032058,,,0,21,0.0,99,931634364,202,13.835809707641602,-661.3410987370912,1.32856291233184,4,-39771.050759556325,3.4028234663852886E38,1.60424998E9,,,,0,,3,,1.60424998E9
Raw,1967774,58870000000,,,-1238851128130049589,0.0,19.392728216032058,,,0,5,0.0,16,1528550,1000000000,7.0,-57.32945255034542,2.99792458E8,4,-2872.2474422397963,3.4028234663852886E38,1.56109798E9,,,,0,,5,,1.56109798E9
Raw,1967774,58870000000,,,-1238851128130049589,0.0,19.392728216032058,,,0,11,0.0,16396,220772926915849,1000000000,8.934444427490234,-216.25013625737313,2.99792458E8,4,-12348.13349212033,3.4028234663852886E38,1.56109798E9,,,,1,,5,,1.56109798E9
Raw,1967774,58870000000,,,-1238851128130049589,0.0,19.392728216032058,,,0,13,0.0,16,11765567,1000000000,7.787403106689453,-53.30799534030598,2.99792458E8,4,-1525.503464899134,3.4028234663852886E38,1.56109798E9,,,,1,,5,,1.56109798E9
Raw,1967775,58870000000,,,-1238851128130049589,0.0,19.392728216032058,,,0,24,0.0,16396,220772913751428,1000000000,7.0,528.7724762178809,2.99792458E8,4,29415.593403242834,3.4028234663852886E38,1.56109798E9,,,,1,,5,,1.56109798E9
Raw,1967776,58870000000,,,-1238851128130049589,0.0,19.392728216032058,,,0,25,0.0,16396,220772926870804,1000000000,7.0,168.89298894963463,2.99792458E8,4,8366.461229665792,3.4028234663852886E38,1.56109798E9,,,,1,,5,,1.56109798E9
Raw,1967776,58870000000,,,-1238851128130049589,0.0,19.392728216032058,,,0,28,0.0,16,10988604,1000000000,7.0,-714.9470088298631,2.99792458E8,4,-30952.000233401013,3.4028234663852886E38,1.56109798E9,,,,1,,5,,1.56109798E9
Raw,1967776,58870000000,,,-1238851128130049589,0.0,19.392728216032058,,,0,4,0.0,18474,220786903430399,1000000000,16.54638671875,-324.4335961546974,2.99792458E8,4,-1235.2379106409694,3.4028234663852886E38,1.57542003E9,,,,1,,6,,1.57542003E9
Raw,1967776,58870000000,,,-1238851128130049589,0.0,19.392728216032058,,,0,13,0.0,18474,220786910166902,1000000000,13.433531761169434,-668.7898877750645,2.99792458E8,4,-3303.210800401015,3.4028234663852886E38,1.57542003E9,,,,1,,6,,1.57542003E9
Raw,1967777,58870000000,,,-1238851128130049589,0.0,19.392728216032058,,,0,15,0.0,18474,220786919884663,1000000000,12.803247451782227,-361.8473060605038,2.99792458E8,4,-1003.2639891718075,3.4028234663852886E38,1.57542003E9,,,,0,,6,,1.57542003E9
Raw,1967777,58870000000,,,-1238851128130049589,0.0,19.392728216032058,,,0,19,0.0,16,58001934226,1000000000,18.109703063964844,124.01565561665342,2.99792458E8,2,308.5836417776123,3.4028234663852886E38,1.57542003E9,,,,0,,6,,1.57542003E9
Raw,1967777,58870000000,,,-1238851128130049589,0.0,19.392728216032058,,,0,21,0.0,18474,220786912946191,1000000000,11.57149600982666,-464.9575752631795,2.99792458E8,4,-1584.0095858818609,3.4028234663852886E38,1.57542003E9,,,,0,,6,,1.57542003E9
Raw,1967778,58870000000,,,-1238851128130049589,0.0,19.392728216032058,,,0,27,0.0,18474,220786922628176,1000000000,9.117597579956055,-111.95584251509501,2.99792458E8,4,-6709.230574328147,3.4028234663852886E38,1.57542003E9,,,,0,,6,,1.57542003E9
Raw,1967778,58870000000,,,-1238851128130049589,0.0,19.392728216032058,,,0,30,0.0,18474,220786921078577,1000000000,9.735467910766602,292.73779773235333,2.99792458E8,4,17405.090610461113,3.4028234663852886E38,1.57542003E9,,,,0,,6,,1.57542003E9
Raw,1967778,58870000000,,,-1238851128130049589,0.0,19.392728216032058,,,0,4,0.0,16408,220786903430162,1000000000,7.0,-325.6798552599105,2.99792458E8,4,-2274.4641359423413,3.4028234663852886E38,1.17645005E9,,,,1,,6,,1.17645005E9
Raw,1967779,58870000000,,,-1238851128130049589,0.0,19.392728216032058,,,0,13,0.0,16408,220786910166756,1000000000,7.085079193115234,-663.7927861646031,2.99792458E8,4,-11713.642808916355,3.4028234663852886E38,1.17645005E9,,,,1,,6,,1.17645005E9
Raw,1967779,58870000000,,,-1238851128130049589,0.0,19.392728216032058,,,0,15,0.0,16408,220786919884680,1000000000,8.820323944091797,-362.1413694953826,2.99792458E8,4,-6917.827875557323,3.4028234663852886E38,1.17645005E9,,,,0,,6,,1.17645005E9
Raw,1967779,58870000000,,,-1238851128130049589,0.0,19.392728216032058,,,0,21,0.0,16408,220786912946149,1000000000,7.0,-464.90283883800385,2.99792458E8,6,-8090.096050557025,3.4028234663852886E38,1.17645005E9,,,,0,,6,,1.17645005E9
Raw,1967779,58870000000,,,-1238851128130049589,0.0,19.392728216032058,,,0,27,0.0,16408,220786922626692,1000000000,7.0,-49.99190865046262,2.99792458E8,4,-10714.314569864757,3.4028234663852886E38,1.17645005E9,,,,1,,6,,1.17645005E9
Raw,1967780,58870000000,,,-1238851128130049589,0.0,19.392728216032058,,,0,30,0.0,16408,220786921078558,1000000000,7.0,291.77258256362734,2.99792458E8,4,31171.01428082209,3.4028234663852886E38,1.17645005E9,,,,0,,6,,1.17645005E9
Raw,1968696,59870000000,,,-1238851128130049751,0.0,20.36391470469628,,,0,2,0.0,4,5923865595,1000000000,7.0,-58.27906221429103,2.99792458E8,4,-3513.474960400969,3.4028234663852886E38,1.57542003E9,,,,1,,1,,1.57542003E9
Raw,1968696,59870000000,,,-1238851128130049751,0.0,20.36391470469628,,,0,6,0.0,16396,220787920619453,1000000000,11.50613784790039,265.9023450636729,2.99792458E8,4,15988.773055539257,3.4028234663852886E38,1.57542003E9,,,,1,,1,,1.57542003E9
Raw,1968696,59870000000,,,-1238851128130049751,0.0,20.36391470469628,,,0,12,0.0,16431,220787930215274,66,19.069162368774414,296.7764665829368,1.0929696623676586,4,17591.794712535586,3.4028234663852886E38,1.57542003E9,,,,0,,1,,1.57542003E9
Raw,1968696,59870000000,,,-1238851128130049751,0.0,20.36391470469628,,,0,14,0.0,51,4358869,132,10.499717712402344,-95.11118482168513,1.4772745221009504,4,-2696.0734741142146,3.4028234663852886E38,1.57542003E9,,,,1,,1,,1.57542003E9
Raw,1968696,59870000000,,,-1238851128130049751,0.0,20.36391470469628,,,0,24,0.0,16431,220787922253455,57,21.322250366210938,601.596597399996,299.7928662325751,4,36344.23485348995,3.4028234663852886E38,1.57542003E9,,,,0,,1,,1.57542003E9
Raw,1968697,59870000000,,,-1238851128130049751,0.0,20.36391470469628,,,0,25,0.0,16431,220787931909945,62,19.87049102783203,-119.66608659766888,1.0572397983565152,4,-7357.70984043833,3.4028234663852886E38,1.57542003E9,,,,0,,1,,1.57542003E9
Raw,1968697,59870000000,,,-1238851128130049751,0.0,20.36391470469628,,,0,29,0.0,16431,220787930102347,55,21.363801956176758,-468.2493952439786,0.9897621926616718,4,-27185.12378469536,3.4028234663852886E38,1.57542003E9,,,,0,,1,,1.57542003E9
Raw,1968697,59870000000,,,-1238851128130049751,0.0,20.36391470469628,,,0,31,0.0,16431,220787922216208,85,15.889749526977539,-637.885347663354,1.2345055836927594,4,-35625.79608095455,3.4028234663852886E38,1.57542003E9,,,,1,,1,,1.57542003E9
Raw,1968697,59870000000,,,-1238851128130049751,0.0,20.36391470469628,,,0,6,0.0,16408,220787920619389,1000000000,7.0,266.01786755005696,2.99792458E8,4,64743.77822157788,3.4028234663852886E38,1.17645005E9,,,,1,,1,,1.17645005E9
Raw,1968697,59870000000,,,-1238851128130049751,0.0,20.36391470469628,,,0,24,0.0,16408,220787922253532,1000000000,7.282718658447266,603.3684761497038,2.99792458E8,4,103081.63118132477,3.4028234663852886E38,1.17645005E9,,,,0,,1,,1.17645005E9
Raw,1968698,59870000000,,,-1238851128130049751,0.0,20.36391470469628,,,0,25,0.0,16408,220787931909660,1000000000,7.0,-103.0648458087449,2.99792458E8,4,-28147.502537141532,3.4028234663852886E38,1.17645005E9,,,,0,,1,,1.17645005E9
Raw,1968698,59870000000,,,-1238851128130049751,0.0,20.36391470469628,,,0,2,0.0,99,1922962398,188,14.744988441467285,7.617441813769318,1.2861184049819157,4,299.86560624842804,3.4028234663852886E38,1.59975002E9,,,,1,,3,,1.59975002E9
Raw,1968698,59870000000,,,-1238851128130049751,0.0,20.36391470469628,,,0,9,0.0,32995,58769923885699,237,11.901199340820312,569.0970324054745,1.4141664604073059,4,34650.0397561393,3.4028234663852886E38,1.60087501E9,,,,1,,3,,1.60087501E9
Raw,1968698,59870000000,,,-1238851128130049751,0.0,20.36391470469628,,,0,12,0.0,50,937009,1000000000,8.94706916809082,-731.7334366463037,2.99792458E8,4,-43959.95676280837,3.4028234663852886E38,1.60143744E9,,,,1,,3,,1.60143744E9
Raw,1968698,59870000000,,,-1238851128130049751,0.0,20.36391470469628,,,0,11,0.0,51,12145757,135,18.857650756835938,-497.62802969470636,1.1028284788879668,4,-30414.36078800473,3.4028234663852886E38,1.602E9,,,,0,,3,,1.602E9
Raw,1968698,59870000000,,,-1238851128130049751,0.0,20.36391470469628,,,0,1,0.0,99,1920477413,199,14.056671142578125,576.4622853425103,1.3202218967708612,4,35005.48610513742,3.4028234663852886E38,1.60256256E9,,,,0,,3,,1.60256256E9
Raw,1968699,59870000000,,,-1238851128130049751,0.0,20.36391470469628,,,0,20,0.0,99,1933657188,233,12.084409713745117,167.30012830281282,1.4076853351495444,4,10067.39222143697,3.4028234663852886E38,1.60312499E9,,,,1,,3,,1.60312499E9
Raw,1968699,59870000000,,,-1238851128130049751,0.0,20.36391470469628,,,0,19,0.0,50,974621,1000000000,9.700803756713867,741.4960836576106,2.99792458E8,4,40181.45999298222,3.4028234663852886E38,1.60368755E9,,,,0,,3,,1.60368755E9
Raw,1968699,59870000000,,,-1238851128130049751,0.0,20.36391470469628,,,0,21,0.0,99,1931636773,209,13.435876846313477,-660.7440422637246,1.3465477986082206,4,-40432.494208902375,3.4028234663852886E38,1.60424998E9,,,,0,,3,,1.60424998E9
Raw,1968699,59870000000,,,-1238851128130049751,0.0,20.36391470469628,,,0,5,0.0,16,1528741,1000000000,7.0,-57.704159337664265,2.99792458E8,4,-2929.9519569725653,3.4028234663852886E38,1.56109798E9,,,,0,,5,,1.56109798E9
Raw,1968700,59870000000,,,-1238851128130049751,0.0,20.36391470469628,,,0,11,0.0,16396,220773926916426,1000000000,7.0,-216.42789330936785,2.99792458E8,4,-12563.284836054114,3.4028234663852886E38,1.56109798E9,,,,1,,5,,1.56109798E9
Raw,1968700,59870000000,,,-1238851128130049751,0.0,20.36391470469628,,,0,13,0.0,16,11765732,1000000000,9.004804611206055,-52.530663973469046,2.99792458E8,4,-1577.705383714676,3.4028234663852886E38,1.56109798E9,,,,1,,5,,1.56109798E9
Raw,1968700,59870000000,,,-1238851128130049751,0.0,20.36391470469628,,,0,24,0.0,16396,220773913749651,1000000000,7.0,531.5140008556627,2.99792458E8,4,29949.097245757603,3.4028234663852886E38,1.56109798E9,,,,1,,5,,1.56109798E9
Raw,1968700,59870000000,,,-1238851128130049751,0.0,20.36391470469628,,,0,25,0.0,16396,220773926870247,1000000000,10.228992462158203,170.50050505276124,2.99792458E8,4,8537.615356704824,3.4028234663852886E38,1.56109798E9,,,,1,,5,,1.56109798E9
Raw,1968700,59870000000,,,-1238851128130049751,0.0,20.36391470469628,,,0,28,0.0,16,10990991,1000000000,7.0,-715.3217113568749,2.99792458E8,4,-31667.91735986254,3.4028234663852886E38,1.56109798E9,,,,1,,5,,1.56109798E9
Raw,1968701,59870000000,,,-1238851128130049751,0.0,20.36391470469628,,,0,4,0.0,18474,220787903431478,1000000000,15.686180114746094,-325.3081519890727,2.99792458E8,4,-1557.28913099299,3.4028234663852886E38,1.57542003E9,,,,1,,6,,1.57542003E9
Raw,1968701,59870000000,,,-1238851128130049751,0.0,20.36391470469628,,,0,13,0.0,19498,220787910169001,112,13.279180526733398,-668.6685542298433,299.79358196416206,4,-3969.47908804864,3.4028234663852886E38,1.57542003E9,,,,1,,6,,1.57542003E9
Raw,1968701,59870000000,,,-1238851128130049751,0.0,20.36391470469628,,,0,15,0.0,18474,220787919885867,1000000000,12.60496997833252,-362.3015570410398,2.99792458E8,4,-1365.6167576396567,3.4028234663852886E38,1.57542003E9,,,,0,,6,,1.57542003E9
Raw,1968701,59870000000,,,-1238851128130049751,0.0,20.36391470469628,,,0,19,0.0,18474,220787909933807,1000000000,7.0,123.84347956691431,2.99792458E8,4,407.9424783308101,3.4028234663852886E38,1.57542003E9,,,,0,,6,,1.57542003E9
Raw,1968701,59870000000,,,-1238851128130049751,0.0,20.36391470469628,,,0,21,0.0,18474,220787912947735,1000000000,11.305788040161133,-464.78661766126106,2.99792458E8,4,-2047.6020478210169,3.4028234663852886E38,1.57542003E9,,,,0,,6,,1.57542003E9
Raw,1968702,59870000000,,,-1238851128130049751,0.0,20.36391470469628,,,0,27,0.0,18474,220787922628546,1000000000,8.257397651672363,-111.7180577365495,2.99792458E8,4,-6820.872864571407,3.4028234663852886E38,1.57542003E9,,,,0,,6,,1.57542003E9
Raw,1968702,59870000000,,,-1238851128130049751,0.0,20.36391470469628,,,0,30,0.0,16,59001077602,1000000000,7.0,292.77351614678923,2.99792458E8,2,541.4796972820127,3.4028234663852886E38,1.57542003E9,,,,0,,6,,1.57542003E9
Raw,1968702,59870000000,,,-1238851128130049751,0.0,20.36391470469628,,,0,4,0.0,16408,220787903431219,1000000000,7.0,-325.6749814686277,2.99792458E8,4,-2599.0688774454593,3.4028234663852886E38,1.17645005E9,,,,1,,6,,1.17645005E9
Raw,1968702,59870000000,,,-1238851128130049751,0.0,20.36391470469628,,,0,13,0.0,16408,220787910168977,1000000000,7.649175643920898,-663.7879464557768,2.99792458E8,4,-12380.077351008633,3.4028234663852886E38,1.17645005E9,,,,1,,6,,1.17645005E9
Raw,1968702,59870000000,,,-1238851128130049751,0.0,20.36391470469628,,,0,15,0.0,16408,220787919885924,1000000000,8.223249435424805,-362.6512089625073,2.99792458E8,4,-7278.772799226092,3.4028234663852886E38,1.17645005E9,,,,0,,6,,1.17645005E9
Raw,1968703,59870000000,,,-1238851128130049751,0.0,20.36391470469628,,,0,19,0.0,16408,220787909933746,1000000000,7.0,121.82263699292145,2.99792458E8,6,8294.62290208468,3.4028234663852886E38,1.17645005E9,,,,0,,6,,1.17645005E9
Raw,1968703,59870000000,,,-1238851128130049751,0.0,20.36391470469628,,,0,21,0.0,16408,220787912947699,1000000000,7.0,-464.90283883800385,2.99792458E8,4,-8554.99890342631,3.4028234663852886E38,1.17645005E9,,,,0,,6,,1.17645005E9
Raw,1968703,59870000000,,,-1238851128130049751,0.0,20.36391470469628,,,0,27,0.0,16408,220787922626828,1000000000,7.0,-44.582643632963794,2.99792458E8,4,-10754.944821283709,3.4028234663852886E38,1.17645005E9,,,,1,,6,,1.17645005E9
Raw,1969724,60870000000,,,-1238851128130049911,0.0,21.19781858046145,,,0,2,0.0,4,923865629,1000000000,9.10194206237793,-57.79647593146336,2.99792458E8,4,-3571.446916033202,3.4028234663852886E38,1.57542003E9,,,,1,,1,,1.57542003E9
Raw,1969724,60870000000,,,-1238851128130049911,0.0,21.19781858046145,,,0,6,0.0,16396,220788920618555,1000000000,11.285266876220703,268.678241858858,2.99792458E8,4,16250.084871094858,3.4028234663852886E38,1.57542003E9,,,,1,,1,,1.57542003E9
Raw,1969724,60870000000,,,-1238851128130049911,0.0,21.19781858046145,,,0,12,0.0,16431,220788930214294,70,18.399158477783203,297.07792591088105,1.1230988202030145,4,17888.513165717344,3.4028234663852886E38,1.57542003E9,,,,1,,1,,1.57542003E9
Raw,1969725,60870000000,,,-1238851128130049911,0.0,21.19781858046145,,,0,14,0.0,50,4359394,1000000000,10.403156280517578,-94.33260518487805,2.99792458E8,4,-2791.6571236366776,3.4028234663852886E38,1.57542003E9,,,,1,,1,,1.57542003E9
Raw,1969725,60870000000,,,-1238851128130049911,0.0,21.19781858046145,,,0,24,0.0,16431,220788922251455,56,21.183198928833008,602.2004703646671,0.9964715106166211,4,36945.97119500396,3.4028234663852886E38,1.57542003E9,,,,0,,1,,1.57542003E9
Raw,1969725,60870000000,,,-1238851128130049911,0.0,21.19781858046145,,,0,25,0.0,16431,220788931910326,59,20.39373779296875,-120.19909361461498,1.03371012243458,4,-7477.798911850932,3.4028234663852886E38,1.57542003E9,,,,0,,1,,1.57542003E9
Raw,1969725,60870000000,,,-1238851128130049911,0.0,21.19781858046145,,,0,29,0.0,16431,220788930103870,60,20.249351501464844,-468.3241380711331,1.0398779819884423,4,-27653.614399314614,3.4028234663852886E38,1.57542003E9,,,,1,,1,,1.57542003E9
Raw,1969725,60870000000,,,-1238851128130049911,0.0,21.19781858046145,,,0,31,0.0,16431,220788922218402,112,12.555953979492188,-638.0441037458372,1.3844228603613642,4,-36264.664871586254,3.4028234663852886E38,1.57542003E9,,,,1,,1,,1.57542003E9
Raw,1969726,60870000000,,,-1238851128130049911,0.0,21.19781858046145,,,0,6,0.0,16408,220788920618566,1000000000,7.0,265.91101904885795,2.99792458E8,4,65010.70268173891,3.4028234663852886E38,1.17645005E9,,,,1,,1,,1.17645005E9
Raw,1969726,60870000000,,,-1238851128130049911,0.0,21.19781858046145,,,0,24,0.0,16408,220788922251497,1000000000,7.0,599.6538973781958,2.99792458E8,4,103680.87640155459,3.4028234663852886E38,1.17645005E9,,,,0,,1,,1.17645005E9
Raw,1969726,60870000000,,,-1238851128130049911,0.0,21.19781858046145,,,0,25,0.0,16408,220788931909980,1000000000,7.0,-102.08398679247495,2.99792458E8,4,-28247.168456663087,3.4028234663852886E38,1.17645005E9,,,,0,,1,,1.17645005E9
Raw,1969726,60870000000,,,-1238851128130049911,0.0,21.19781858046145,,,0,2,0.0,99,922962345,238,11.835075378417969,8.348457784883667,1.4169737364941808,4,306.5952285064744,3.4028234663852886E38,1.59975002E9,,,,1,,3,,1.59975002E9
Raw,1969726,60870000000,,,-1238851128130049911,0.0,21.19781858046145,,,0,9,0.0,32995,58770923883579,217,12.97995376586914,569.5263350278358,1.3656558083347043,4,35224.43635470249,3.4028234663852886E38,1.60087501E9,,,,1,,3,,1.60087501E9
Raw,1969726,60870000000,,,-1238851128130049911,0.0,21.19781858046145,,,0,12,0.0,16,20939447,1000000000,8.189523696899414,-731.1681450224164,2.99792458E8,4,-44691.73546752919,3.4028234663852886E38,1.60143744E9,,,,1,,3,,1.60143744E9
Raw,1969727,60870000000,,,-1238851128130049911,0.0,21.19781858046145,,,0,11,0.0,51,12147353,133,19.069053649902344,-497.1507048911044,1.0933221362100185,4,-30910.65418140167,3.4028234663852886E38,1.602E9,,,,0,,3,,1.602E9
Raw,1969727,60870000000,,,-1238851128130049911,0.0,21.19781858046145,,,0,1,0.0,99,920475617,207,13.54985237121582,577.5873472323283,1.3430125425515538,4,35587.922455509266,3.4028234663852886E38,1.60256256E9,,,,0,,3,,1.60256256E9
Raw,1969727,60870000000,,,-1238851128130049911,0.0,21.19781858046145,,,0,20,0.0,99,933656967,236,11.950178146362305,167.00044126260775,1.4137215245881682,4,10233.772729613102,3.4028234663852886E38,1.60312499E9,,,,1,,3,,1.60312499E9
Raw,1969728,60870000000,,,-1238851128130049911,0.0,21.19781858046145,,,0,19,0.0,50,972152,1000000000,8.840570449829102,741.9743968524517,2.99792458E8,4,40921.36459176075,3.4028234663852886E38,1.60368755E9,,,,1,,3,,1.60368755E9
Raw,1969728,60870000000,,,-1238851128130049911,0.0,21.19781858046145,,,0,21,0.0,99,931639127,220,12.816246032714844,-660.4799713905859,1.3744124701037466,4,-41097.05486164849,3.4028234663852886E38,1.60424998E9,,,,1,,3,,1.60424998E9
Raw,1969728,60870000000,,,-1238851128130049911,0.0,21.19781858046145,,,0,5,0.0,16,1528765,1000000000,7.0,-57.704159337664265,2.99792458E8,4,-2987.6561161867776,3.4028234663852886E38,1.56109798E9,,,,0,,5,,1.56109798E9
Raw,1969728,60870000000,,,-1238851128130049911,0.0,21.19781858046145,,,0,11,0.0,16396,220774926917169,1000000000,7.0,-217.4339733434647,2.99792458E8,4,-12778.848324398656,3.4028234663852886E38,1.56109798E9,,,,1,,5,,1.56109798E9
Raw,1969728,60870000000,,,-1238851128130049911,0.0,21.19781858046145,,,0,13,0.0,16,11765911,1000000000,7.0,-52.147598463687984,2.99792458E8,4,-1630.7638998999862,3.4028234663852886E38,1.56109798E9,,,,1,,5,,1.56109798E9
Raw,1969728,60870000000,,,-1238851128130049911,0.0,21.19781858046145,,,0,24,0.0,16396,220774913747838,1000000000,7.0,535.1586083439295,2.99792458E8,4,30485.379079752413,3.4028234663852886E38,1.56109798E9,,,,1,,5,,1.56109798E9
Raw,1969729,60870000000,,,-1238851128130049911,0.0,21.19781858046145,,,0,25,0.0,16396,220774926869712,1000000000,7.0,171.60571391165468,2.99792458E8,4,8708.718203778699,3.4028234663852886E38,1.56109798E9,,,,1,,5,,1.56109798E9
Raw,1969729,60870000000,,,-1238851128130049911,0.0,21.19781858046145,,,0,28,0.0,16,10993376,1000000000,7.0,-716.0711164108984,2.99792458E8,4,-32383.77592174094,3.4028234663852886E38,1.56109798E9,,,,1,,5,,1.56109798E9
Raw,1969729,60870000000,,,-1238851128130049911,0.0,21.19781858046145,,,0,4,0.0,18474,220788903432554,1000000000,15.502190589904785,-324.140146204036,2.99792458E8,4,-1880.1148042866746,3.4028234663852886E38,1.57542003E9,,,,1,,6,,1.57542003E9
Raw,1969729,60870000000,,,-1238851128130049911,0.0,21.19781858046145,,,0,13,0.0,18474,220788910171274,1000000000,12.418974876403809,-665.4490572217856,2.99792458E8,4,-4625.990623240631,3.4028234663852886E38,1.57542003E9,,,,1,,6,,1.57542003E9
Raw,1969729,60870000000,,,-1238851128130049911,0.0,21.19781858046145,,,0,15,0.0,18474,220788919887073,1000000000,12.79311752319336,-362.2269846261679,2.99792458E8,4,-1727.2692855134912,3.4028234663852886E38,1.57542003E9,,,,1,,6,,1.57542003E9
Raw,1969729,60870000000,,,-1238851128130049911,0.0,21.19781858046145,,,0,19,0.0,16,60001933393,1000000000,7.0,124.2013112779473,2.99792458E8,2,308.5896454588868,3.4028234663852886E38,1.57542003E9,,,,0,,6,,1.57542003E9
Raw,1969730,60870000000,,,-1238851128130049911,0.0,21.19781858046145,,,0,21,0.0,18474,220788912949286,1000000000,11.262948989868164,-464.35789444066063,2.99792458E8,4,-2511.7802852500754,3.4028234663852886E38,1.57542003E9,,,,0,,6,,1.57542003E9
Raw,1969730,60870000000,,,-1238851128130049911,0.0,21.19781858046145,,,0,27,0.0,18474,220788922628855,1000000000,8.301959991455078,-111.57785955164292,2.99792458E8,4,-6932.408010466179,3.4028234663852886E38,1.57542003E9,,,,0,,6,,1.57542003E9
Raw,1969730,60870000000,,,-1238851128130049911,0.0,21.19781858046145,,,0,30,0.0,18474,220788921076603,1000000000,20.064556121826172,292.77337981696314,2.99792458E8,4,775.5800299435494,3.4028234663852886E38,1.57542003E9,,,,0,,6,,1.57542003E9
Raw,1969730,60870000000,,,-1238851128130049911,0.0,21.19781858046145,,,0,4,0.0,16408,220788903432297,1000000000,7.0,-325.6749814686277,2.99792458E8,4,-2922.2626157488617,3.4028234663852886E38,1.17645005E9,,,,1,,6,,1.17645005E9
Raw,1969730,60870000000,,,-1238851128130049911,0.0,21.19781858046145,,,0,13,0.0,16408,220788910171178,1000000000,15.102212905883789,-663.7879464557768,2.99792458E8,4,-13046.355964988179,3.4028234663852886E38,1.17645005E9,,,,1,,6,,1.17645005E9
Raw,1969731,60870000000,,,-1238851128130049911,0.0,21.19781858046145,,,0,15,0.0,16408,220788919887153,1000000000,7.0,-362.51528812589436,2.99792458E8,4,-7640.663612235228,3.4028234663852886E38,1.17645005E9,,,,0,,6,,1.17645005E9
Raw,1969731,60870000000,,,-1238851128130049911,0.0,21.19781858046145,,,0,21,0.0,16408,220788912949250,1000000000,7.0,-464.90283883800385,2.99792458E8,4,-9019.901756168927,3.4028234663852886E38,1.17645005E9,,,,0,,6,,1.17645005E9
Raw,1969731,60870000000,,,-1238851128130049911,0.0,21.19781858046145,,,0,27,0.0,16408,220788922626946,1000000000,7.0,-39.17337861546497,2.99792458E8,4,-10790.148621452401,3.4028234663852886E38,1.17645005E9,,,,1,,6,,1.17645005E9
Raw,1970702,61870000000,,,-1238851128130050074,0.0,22.209072804426395,,,0,2,0.0,4,1923865980,1000000000,8.929916381835938,-57.861705492940956,2.99792458E8,4,-3630.3888667576593,3.4028234663852886E38,1.57542003E9,,,,1,,1,,1.57542003E9
Raw,1970702,61870000000,,,-1238851128130050074,0.0,22.209072804426395,,,0,6,0.0,16396,220789920617657,1000000000,10.425052642822266,268.4042529908711,2.99792458E8,4,16518.77885860431,3.4028234663852886E38,1.57542003E9,,,,1,,1,,1.57542003E9
Raw,1970702,61870000000,,,-1238851128130050074,0.0,22.209072804426395,,,0,12,0.0,16431,220789930213276,68,18.76278305053711,297.14155785720914,1.1067470294459194,4,18186.13609332698,3.4028234663852886E38,1.57542003E9,,,,0,,1,,1.57542003E9
Raw,1970702,61870000000,,,-1238851128130050074,0.0,22.209072804426395,,,0,14,0.0,51,4359568,142,9.578981399536133,-94.96055740508257,1.4997464436593164,4,-2887.574972371053,3.4028234663852886E38,1.57542003E9,,,,1,,1,,1.57542003E9
Raw,1970703,61870000000,,,-1238851128130050074,0.0,22.209072804426395,,,0,24,0.0,16431,220789922249460,60,20.619714736938477,601.9750489972253,299.7928662325751,4,37547.66877360191,3.4028234663852886E38,1.57542003E9,,,,0,,1,,1.57542003E9
Raw,1970703,61870000000,,,-1238851128130050074,0.0,22.209072804426395,,,0,25,0.0,16431,220789931910724,65,19.179859161376953,-119.65936383311976,1.088296904324543,4,-7597.805977976924,3.4028234663852886E38,1.57542003E9,,,,0,,1,,1.57542003E9
Raw,1970703,61870000000,,,-1238851128130050074,0.0,22.209072804426395,,,0,29,0.0,16431,220789930105388,87,15.624470710754395,-467.7711502140505,1.247853791401484,4,-28121.9480655513,3.4028234663852886E38,1.57542003E9,,,,1,,1,,1.57542003E9
Raw,1970703,61870000000,,,-1238851128130050074,0.0,22.209072804426395,,,0,31,0.0,16431,220789922220417,83,16.24689483642578,-637.8515378664833,1.2184459568061303,4,-36902.56525883058,3.4028234663852886E38,1.57542003E9,,,,1,,1,,1.57542003E9
Raw,1970703,61870000000,,,-1238851128130050074,0.0,22.209072804426395,,,0,6,0.0,16408,220789920617597,1000000000,7.0,266.52772405840994,2.99792458E8,4,65276.27158004457,3.4028234663852886E38,1.17645005E9,,,,1,,1,,1.17645005E9
Raw,1970703,61870000000,,,-1238851128130050074,0.0,22.209072804426395,,,0,24,0.0,16408,220789922249490,1000000000,7.679529190063477,602.8780977652536,2.99792458E8,4,104280.14936652896,3.4028234663852886E38,1.17645005E9,,,,0,,1,,1.17645005E9
Raw,1970704,61870000000,,,-1238851128130050074,0.0,22.209072804426395,,,0,25,0.0,16408,220789931910317,1000000000,7.0,-97.55360182102277,2.99792458E8,4,-28347.545234187033,3.4028234663852886E38,1.17645005E9,,,,1,,1,,1.17645005E9
Raw,1970704,61870000000,,,-1238851128130050074,0.0,22.209072804426395,,,0,2,0.0,99,1922962466,130,19.283771514892578,8.949484331896784,1.0820144824510014,4,314.7584127318327,3.4028234663852886E38,1.59975002E9,,,,0,,3,,1.59975002E9
Raw,1970704,61870000000,,,-1238851128130050074,0.0,22.209072804426395,,,0,9,0.0,32995,58771923881621,212,13.276161193847656,569.976427948676,1.3523351594873088,4,35793.6234059289,3.4028234663852886E38,1.60087501E9,,,,1,,3,,1.60087501E9
Raw,1970704,61870000000,,,-1238851128130050074,0.0,22.209072804426395,,,0,12,0.0,16,20941886,1000000000,7.839422225952148,-732.0090955546602,2.99792458E8,4,-45423.26779927624,3.4028234663852886E38,1.60143744E9,,,,1,,3,,1.60143744E9
Raw,1970704,61870000000,,,-1238851128130050074,0.0,22.209072804426395,,,0,11,0.0,51,12149119,153,17.277912139892578,-497.7575089470365,1.1738681006932312,4,-31407.62877971789,3.4028234663852886E38,1.602E9,,,,0,,3,,1.602E9
Raw,1970705,61870000000,,,-1238851128130050074,0.0,22.209072804426395,,,0,1,0.0,99,1920473569,214,13.173145294189453,578.1161706277362,1.3599523222509653,4,36165.460626165644,3.4028234663852886E38,1.60256256E9,,,,1,,3,,1.60256256E9
Raw,1970705,61870000000,,,-1238851128130050074,0.0,22.209072804426395,,,0,20,0.0,99,1933656017,231,12.190410614013672,168.236475630864,1.402918317812608,4,10400.979868608507,3.4028234663852886E38,1.60312499E9,,,,1,,3,,1.60312499E9
Raw,1970705,61870000000,,,-1238851128130050074,0.0,22.209072804426395,,,0,19,0.0,16,969674,1000000000,7.9803924560546875,740.6586095359321,2.99792458E8,4,41662.32298890167,3.4028234663852886E38,1.60368755E9,,,,0,,3,,1.60368755E9
Raw,1970705,61870000000,,,-1238851128130050074,0.0,22.209072804426395,,,0,21,0.0,99,1931641299,229,12.296733856201172,-660.6272757676775,1.3977746627041752,4,-41757.57212262895,3.4028234663852886E38,1.60424998E9,,,,1,,3,,1.60424998E9
Raw,1970706,61870000000,,,-1238851128130050074,0.0,22.209072804426395,,,0,5,0.0,16,1529020,1000000000,7.0,-57.704159337664265,2.99792458E8,4,-3045.360275483224,3.4028234663852886E38,1.56109798E9,,,,0,,5,,1.56109798E9
Raw,1970706,61870000000,,,-1238851128130050074,0.0,22.209072804426395,,,0,11,0.0,16396,220775926917819,1000000000,7.0,-211.94426094765083,2.99792458E8,4,-12991.241908953738,3.4028234663852886E38,1.56109798E9,,,,1,,5,,1.56109798E9
Raw,1970706,61870000000,,,-1238851128130050074,0.0,22.209072804426395,,,0,13,0.0,16,11766043,1000000000,7.0,-51.43648930987487,2.99792458E8,4,-1683.3728539646067,3.4028234663852886E38,1.56109798E9,,,,1,,5,,1.56109798E9
Raw,1970706,61870000000,,,-1238851128130050074,0.0,22.209072804426395,,,0,24,0.0,16396,220775913745910,1000000000,7.0,538.1797113725679,2.99792458E8,4,31026.0904217311,3.4028234663852886E38,1.56109798E9,,,,1,,5,,1.56109798E9
Raw,1970706,61870000000,,,-1238851128130050074,0.0,22.209072804426395,,,0,25,0.0,16396,220775926869206,1000000000,7.0,173.49914774255114,2.99792458E8,4,8882.0430177232,3.4028234663852886E38,1.56109798E9,,,,1,,5,,1.56109798E9
Raw,1970707,61870000000,,,-1238851128130050074,0.0,22.209072804426395,,,0,28,0.0,16,10995761,1000000000,7.0,-715.6964138838866,2.99792458E8,4,-33099.46820774629,3.4028234663852886E38,1.56109798E9,,,,0,,5,,1.56109798E9
Raw,1970707,61870000000,,,-1238851128130050074,0.0,22.209072804426395,,,0,4,0.0,18474,220789903433631,1000000000,14.802153587341309,-323.10986762580796,2.99792458E8,4,-2203.63585638907,3.4028234663852886E38,1.57542003E9,,,,1,,6,,1.57542003E9
