# 
# Header Description:
# 
# Version: v2.0.0.1 Platform: 8.1.0 Manufacturer: Xiaomi Model: MI 8 Pro
# 
# Raw,ElapsedRealtimeMillis,TimeNanos,LeapSecond,TimeUncertaintyNanos,FullBiasNanos,BiasNanos,BiasUncertaintyNanos,DriftNanosPerSecond,DriftUncertaintyNanosPerSecond,HardwareClockDiscontinuityCount,Svid,TimeOffsetNanos,State,ReceivedSvTimeNanos,ReceivedSvTimeUncertaintyNanos,Cn0DbHz,PseudorangeRateMetersPerSecond,PseudorangeRateUncertaintyMetersPerSecond,AccumulatedDeltaRangeState,AccumulatedDeltaRangeMeters,AccumulatedDeltaRangeUncertaintyMeters,CarrierFrequencyHz,CarrierCycles,CarrierPhase,CarrierPhaseUncertainty,MultipathIndicator,SnrInDb,ConstellationType,AgcDb,CarrierFrequencyHz
# 
# Fix,Provider,Latitude,Longitude,Altitude,Speed,Accuracy,(UTC)TimeInMs
# 
# Nav,Svid,Type,Status,MessageId,Sub-messageId,Data(Bytes)
# 
Raw,1546769,500769000000,,,-1238850265230654553,0.0,11.25625650601474,,,0,2,0.0,16431,220365923424726,21,32.9361686706543,-103.79323866402773,0.004098145291209221,1,-25652.543390773943,0.09719590904478705,1.57542003E9,,,,0,,1,,1.57542003E9
Raw,1546770,500769000000,,,-1238850265230654553,0.0,11.25625650601474,,,0,6,0.0,16431,220365920637755,25,30.891380310058594,221.51094574350282,0.004889342468231916,1,96263.68042817472,0.0975915076332984,1.57542003E9,,,,1,,1,,1.57542003E9
Raw,1546770,500769000000,,,-1238850265230654553,0.0,11.25625650601474,,,0,12,0.0,16397,220365930290566,18,34.922237396240234,273.72241281800234,0.0032604974694550037,1,58724.724131937146,0.0016302487347275019,1.57542003E9,,,,0,,1,,1.57542003E9
Raw,1546770,500769000000,,,-1238850265230654553,0.0,11.25625650601474,,,0,14,0.0,16,3862889,1000000000,11.217134475708008,-145.0771908051904,2.99792458E8,4,-34838.97428385351,3.4028234663852886E38,1.57542003E9,,,,0,,1,,1.57542003E9
Raw,1546770,500769000000,,,-1238850265230654553,0.0,11.25625650601474,,,0,24,0.0,16431,220365922761769,24,31.365663528442383,583.9513598440935,0.5386692978724423,4,286247.06947225134,3.4028234663852886E38,1.57542003E9,,,,0,,1,,1.57542003E9
Raw,1546771,500769000000,,,-1238850265230654553,0.0,11.25625650601474,,,0,25,0.0,16431,220365931392867,18,34.786224365234375,-150.43977933475617,0.0033119556028395887,1,-32577.692855545272,0.09680281420060223,1.57542003E9,,,,0,,1,,1.57542003E9
Raw,1546771,500769000000,,,-1238850265230654553,0.0,11.25625650601474,,,0,29,0.0,16431,220365929088564,31,28.298547744750977,-507.0644735146334,0.6777321109461067,4,-264960.21909704944,3.4028234663852886E38,1.57542003E9,,,,1,,1,,1.57542003E9
Raw,1546771,500769000000,,,-1238850265230654553,0.0,11.25625650601474,,,0,31,0.0,16,980665,1000000000,12.39459228515625,-651.6712241724395,2.99792458E8,4,-327618.80130864953,3.4028234663852886E38,1.57542003E9,,,,0,,1,,1.57542003E9
Raw,1546772,500769000000,,,-1238850265230654553,0.0,11.25625650601474,,,0,32,0.0,39,3924733971,81,16.620071411132812,116.59660352199631,1.202116732363022,4,964.5090547518312,3.4028234663852886E38,1.57542003E9,,,,0,,1,,1.57542003E9
Raw,1546772,500769000000,,,-1238850265230654553,0.0,11.25625650601474,,,0,6,0.0,16409,220365920637902,18,28.175329208374023,221.5033504873752,0.6853505384884233,4,115834.53891389418,3.4028234663852886E38,1.17645005E9,,,,0,,1,,1.17645005E9
Raw,1546772,500769000000,,,-1238850265230654553,0.0,11.25625650601474,,,0,24,0.0,16409,220365922761794,9,31.878700256347656,583.8065473161405,0.006198456976562738,1,352026.4278705594,0.003099228488281369,1.17645005E9,,,,0,,1,,1.17645005E9
Raw,1546772,500769000000,,,-1238850265230654553,0.0,11.25625650601474,,,0,25,0.0,16409,220365931392883,9,33.034053802490234,-150.41874877671944,0.005116107873618603,1,-39002.739905697024,0.0025580539368093014,1.17645005E9,,,,0,,1,,1.17645005E9
Raw,1546772,500769000000,,,-1238850265230654553,0.0,11.25625650601474,,,0,10,0.0,65,1934039132,46,32.183998107910156,135.00072105483565,0.5038982692201945,4,44461.532426160134,3.4028234663852886E38,1.59806246E9,,,,1,,3,,1.59806246E9
Raw,1546772,500769000000,,,-1238850265230654553,0.0,11.25625650601474,,,0,2,0.0,99,1922601976,95,23.189285278320312,-56.776243157295426,0.9063230802772981,4,-20804.0639165895,3.4028234663852886E38,1.59975002E9,,,,0,,3,,1.59975002E9
Raw,1546773,500769000000,,,-1238850265230654553,0.0,11.25625650601474,,,0,9,0.0,99,1924346088,38,34.39061737060547,548.986579513934,0.003411173820495606,1,268256.2029174075,0.0017055869102478027,1.60087501E9,,,,0,,3,,1.60087501E9
Raw,1546773,500769000000,,,-1238850265230654553,0.0,11.25625650601474,,,0,99,0.0,99,1919582244,71,26.727354049682617,-728.085114170276,0.7502743563667802,4,-327093.48027938686,3.4028234663852886E38,1.60143744E9,,,,0,,3,,1.60143744E9
Raw,1546773,500769000000,,,-1238850265230654553,0.0,11.25625650601474,,,0,11,0.0,99,1931100755,48,31.597652435302734,-521.7155672650069,0.5297369650042523,4,-139281.49095809588,3.4028234663852886E38,1.602E9,,,,0,,3,,1.602E9
Raw,1546773,500769000000,,,-1238850265230654553,0.0,11.25625650601474,,,0,1,0.0,32995,58347920947075,109,21.481571197509766,553.0416391989916,0.9828193566257029,4,264200.71600601263,3.4028234663852886E38,1.60256256E9,,,,0,,3,,1.60256256E9
Raw,1546773,500769000000,,,-1238850265230654553,0.0,11.25625650601474,,,0,20,0.0,99,1933516618,70,27.025232315063477,97.33177615274406,0.7357881807005215,4,11887.28758248806,3.4028234663852886E38,1.60312499E9,,,,1,,3,,1.60312499E9
Raw,1546774,500769000000,,,-1238850265230654553,0.0,11.25625650601474,,,0,19,0.0,99,1921676412,226,12.447296142578125,723.4554896060436,1.3892117117720106,4,193970.807605057,3.4028234663852886E38,1.60368755E9,,,,0,,3,,1.60368755E9
Raw,1546774,500769000000,,,-1238850265230654553,0.0,11.25625650601474,,,0,21,0.0,32995,58347930346763,57,29.5058650970459,-707.7397962437235,0.6236666841332661,4,-367594.0586181273,3.4028234663852886E38,1.60424998E9,,,,1,,3,,1.60424998E9
Raw,1546774,500769000000,,,-1238850265230654553,0.0,11.25625650601474,,,0,5,0.0,16904,220351867120671,1000000000,19.843708038330078,-58.81656811549814,2.99792458E8,4,-12987.850533762765,3.4028234663852886E38,1.56109798E9,,,,1,,5,,1.56109798E9
Raw,1546774,500769000000,,,-1238850265230654553,0.0,11.25625650601474,,,0,11,0.0,16397,220351926256688,15,28.811241149902344,-258.09826900824555,0.006269366014748811,1,-141502.44985481814,0.09915442616251265,1.56109798E9,,,,1,,5,,1.56109798E9
Raw,1546774,500769000000,,,-1238850265230654553,0.0,11.25625650601474,,,0,12,0.0,16,15405914,1000000000,7.0,519.3505174419761,2.99792458E8,4,114539.97992779265,3.4028234663852886E38,1.56109798E9,,,,0,,5,,1.56109798E9
Raw,1546775,500769000000,,,-1238850265230654553,0.0,11.25625650601474,,,0,13,0.0,16397,220351871354807,17,27.39263153076172,-67.310666095026,0.7188776906121843,4,-9556.148363158663,3.4028234663852886E38,1.56109798E9,,,,0,,5,,1.56109798E9
Raw,1546775,500769000000,,,-1238850265230654553,0.0,11.25625650601474,,,0,24,0.0,16397,220351914149793,10,33.34965896606445,510.11233422294026,0.003717942396178841,1,248448.80835344564,0.0018589711980894208,1.56109798E9,,,,0,,5,,1.56109798E9
Raw,1546775,500769000000,,,-1238850265230654553,0.0,11.25625650601474,,,0,25,0.0,16397,220351926757217,11,32.310028076171875,135.75922168718535,0.004190677311271429,1,57574.89755255223,0.0020953386556357145,1.56109798E9,,,,1,,5,,1.56109798E9
Raw,1546775,500769000000,,,-1238850265230654553,0.0,11.25625650601474,,,0,7,0.0,16,500002942884,1000000000,7.0,476.0121859538965,2.99792458E8,2,493.4539844808417,3.4028234663852886E38,1.57542003E9,,,,0,,6,,1.57542003E9
Raw,1546775,500769000000,,,-1238850265230654553,0.0,11.25625650601474,,,0,13,0.0,18440,220365908902451,1000000000,16.054798126220703,-668.4135492901396,2.99792458E8,4,-335661.04630831233,3.4028234663852886E38,1.57542003E9,,,,1,,6,,1.57542003E9
Raw,1546775,500769000000,,,-1238850265230654553,0.0,11.25625650601474,,,0,15,0.0,19498,220365919025949,23,32.107940673828125,-395.306394453512,0.5053374874843575,4,-89827.61607031037,3.4028234663852886E38,1.57542003E9,,,,0,,6,,1.57542003E9
Raw,1546776,500769000000,,,-1238850265230654553,0.0,11.25625650601474,,,0,19,0.0,18474,220365909757868,1000000000,8.383586883544922,89.79091335847443,2.99792458E8,4,124.55820252124778,3.4028234663852886E38,1.57542003E9,,,,0,,6,,1.57542003E9
Raw,1546776,500769000000,,,-1238850265230654553,0.0,11.25625650601474,,,0,21,0.0,16,500003964878,1000000000,7.0,-468.21480155060794,2.99792458E8,2,-467.61044067086925,3.4028234663852886E38,1.57542003E9,,,,0,,6,,1.57542003E9
Raw,1546777,500769000000,,,-1238850265230654553,0.0,11.25625650601474,,,0,27,0.0,18440,220365922132851,1000000000,29.968120574951172,-128.29329361114657,2.99792458E8,4,-10773.619822352479,3.4028234663852886E38,1.57542003E9,,,,1,,6,,1.57542003E9
Raw,1546777,500769000000,,,-1238850265230654553,0.0,11.25625650601474,,,0,30,0.0,19498,220365921154051,24,32.1645393371582,279.96778292238673,299.79266173783594,4,23759.45942055962,3.4028234663852886E38,1.57542003E9,,,,0,,6,,1.57542003E9
Raw,1546777,500769000000,,,-1238850265230654553,0.0,11.25625650601474,,,0,13,0.0,16408,220365908902334,1000000000,9.492376327514648,-669.1486397124236,2.99792458E8,4,-405888.89455818303,3.4028234663852886E38,1.17645005E9,,,,0,,6,,1.17645005E9
Raw,1546777,500769000000,,,-1238850265230654553,0.0,11.25625650601474,,,0,15,0.0,17466,220365919025939,9,29.464998245239258,-395.5404389130854,0.007716003805398941,1,-122082.02287109097,0.0038580019026994705,1.17645005E9,,,,0,,6,,1.17645005E9
Raw,1546777,500769000000,,,-1238850265230654553,0.0,11.25625650601474,,,0,19,0.0,16408,220365909757881,1000000000,7.0,87.01688257778397,2.99792458E8,6,697.5277689627221,3.4028234663852886E38,1.17645005E9,,,,0,,6,,1.17645005E9
Raw,1546777,500769000000,,,-1238850265230654553,0.0,11.25625650601474,,,0,27,0.0,17466,220365922132856,9,30.465551376342773,-128.29503950224353,0.0068764579482376575,1,-14808.264648469383,0.0034382289741188288,1.17645005E9,,,,0,,6,,1.17645005E9
Raw,1546778,500769000000,,,-1238850265230654553,0.0,11.25625650601474,,,0,30,0.0,16408,220365920921931,1000000000,7.596569061279297,2296.8759122167157,2.99792458E8,4,89231.05225462659,3.4028234663852886E38,1.17645005E9,,,,1,,6,,1.17645005E9
Raw,1547774,501769000000,,,-1238850265230654714,0.0,11.401872049930445,,,0,2,0.0,16431,220366923425054,14,37.65790939331055,-103.7378039127878,0.2558334862187558,4,-25756.365589978643,3.4028234663852886E38,1.57542003E9,,,,0,,1,,1.57542003E9
Raw,1547775,501769000000,,,-1238850265230654714,0.0,11.401872049930445,,,0,6,0.0,16431,220366920637015,25,31.18046760559082,221.52280735361273,0.004729291424155235,1,96485.20323552833,0.09751148211126005,1.57542003E9,,,,1,,1,,1.57542003E9
Raw,1547775,501769000000,,,-1238850265230654714,0.0,11.401872049930445,,,0,12,0.0,16397,220366930289630,13,41.45539855957031,273.8639728249449,0.15174707855317315,4,58998.58063127197,3.4028234663852886E38,1.57542003E9,,,,0,,1,,1.57542003E9
Raw,1547775,501769000000,,,-1238850265230654714,0.0,11.401872049930445,,,0,14,0.0,16,3863388,1000000000,11.78725814819336,-145.54129161566152,2.99792458E8,4,-34985.331804797876,3.4028234663852886E38,1.57542003E9,,,,0,,1,,1.57542003E9
Raw,1547775,501769000000,,,-1238850265230654714,0.0,11.401872049930445,,,0,24,0.0,16431,220366922759844,15,36.97045135498047,584.1536733060129,0.28662793427111,4,286830.9871993941,3.4028234663852886E38,1.57542003E9,,,,0,,1,,1.57542003E9
Raw,1547776,501769000000,,,-1238850265230654714,0.0,11.401872049930445,,,0,25,0.0,16431,220366931393380,16,36.68738555908203,-150.38619801652032,0.30091008116931706,4,-32727.877412286063,3.4028234663852886E38,1.57542003E9,,,,0,,1,,1.57542003E9
Raw,1547776,501769000000,,,-1238850265230654714,0.0,11.401872049930445,,,0,29,0.0,16431,220366929090212,31,28.253074645996094,-507.9656136650965,0.6797772580393691,4,-265468.3019345991,3.4028234663852886E38,1.57542003E9,,,,1,,1,,1.57542003E9
Raw,1547776,501769000000,,,-1238850265230654714,0.0,11.401872049930445,,,0,31,0.0,16,982845,1000000000,12.689004898071289,-653.4957943999316,2.99792458E8,4,-328271.557622668,3.4028234663852886E38,1.57542003E9,,,,0,,1,,1.57542003E9
Raw,1547776,501769000000,,,-1238850265230654714,0.0,11.401872049930445,,,0,32,0.0,39,4924733668,71,18.21143341064453,116.82961675662864,1.1305548901057625,4,1080.2115811888389,3.4028234663852886E38,1.57542003E9,,,,1,,1,,1.57542003E9
Raw,1547777,501769000000,,,-1238850265230654714,0.0,11.401872049930445,,,0,6,0.0,16409,220366920637145,16,30.1989803314209,221.48856663095648,0.007090769242495298,1,116056.02748052514,0.003545384621247649,1.17645005E9,,,,1,,1,,1.17645005E9
Raw,1547777,501769000000,,,-1238850265230654714,0.0,11.401872049930445,,,0,24,0.0,16409,220366922759834,14,35.703765869140625,583.4011326659893,0.3435893713789211,4,352610.3891379398,3.4028234663852886E38,1.17645005E9,,,,1,,1,,1.17645005E9
Raw,1547777,501769000000,,,-1238850265230654714,0.0,11.401872049930445,,,0,25,0.0,16409,220366931393378,21,33.07240676879883,-148.990180597346,299.7945021904882,4,-39152.924718896174,3.4028234663852886E38,1.17645005E9,,,,0,,1,,1.17645005E9
Raw,1547777,501769000000,,,-1238850265230654714,0.0,11.401872049930445,,,0,10,0.0,65,934038687,33,36.795143127441406,135.33926209547673,0.29654013776433086,4,44596.58201126393,3.4028234663852886E38,1.59806246E9,,,,0,,3,,1.59806246E9
Raw,1547778,501769000000,,,-1238850265230654714,0.0,11.401872049930445,,,0,2,0.0,99,922602338,90,23.850666046142578,-56.39736126905254,0.8765815438175912,4,-20861.15992032121,3.4028234663852886E38,1.59975002E9,,,,0,,3,,1.59975002E9
Raw,1547778,501769000000,,,-1238850265230654714,0.0,11.401872049930445,,,0,9,0.0,99,924344215,33,37.49949264526367,548.6370270127227,0.26312255541290686,4,268805.2474854314,3.4028234663852886E38,1.60087501E9,,,,0,,3,,1.60087501E9
Raw,1547778,501769000000,,,-1238850265230654714,0.0,11.401872049930445,,,0,12,0.0,99,919584669,40,33.84051513671875,-727.896267834585,0.0036329240538179874,1,-327821.37654722144,0.0018164620269089937,1.60143744E9,,,,0,,3,,1.60143744E9
Raw,1547778,501769000000,,,-1238850265230654714,0.0,11.401872049930445,,,0,11,0.0,99,931102355,42,33.383056640625,-521.2051824785779,0.4494497143243128,4,-139803.00165096534,3.4028234663852886E38,1.602E9,,,,0,,3,,1.602E9
Raw,1547779,501769000000,,,-1238850265230654714,0.0,11.401872049930445,,,0,1,0.0,32995,58348920945231,85,24.58425521850586,552.5274712598884,0.843294832773831,4,264754.4260511633,3.4028234663852886E38,1.60256256E9,,,,0,,3,,1.60256256E9
Raw,1547779,501769000000,,,-1238850265230654714,0.0,11.401872049930445,,,0,20,0.0,99,933516301,55,29.827255249023438,96.75661765769337,0.6097842738589252,4,11984.751713452206,3.4028234663852886E38,1.60312499E9,,,,0,,3,,1.60312499E9
Raw,1547779,501769000000,,,-1238850265230654714,0.0,11.401872049930445,,,0,19,0.0,99,921674371,243,11.66048812866211,722.780861461631,299.7927639852055,4,194691.02530309244,3.4028234663852886E38,1.60368755E9,,,,1,,3,,1.60368755E9
Raw,1547779,501769000000,,,-1238850265230654714,0.0,11.401872049930445,,,0,21,0.0,32995,58348930349194,51,30.859357833862305,-707.3801187530044,0.004819209687411785,1,-368301.4387368803,0.0024096048437058926,1.60424998E9,,,,0,,3,,1.60424998E9
Raw,1547780,501769000000,,,-1238850265230654714,0.0,11.401872049930445,,,0,5,0.0,16905,220352867120882,47,23.170188903808594,-58.10927193650852,0.9069153960939778,4,-13045.286176517804,3.4028234663852886E38,1.56109798E9,,,,1,,5,,1.56109798E9
Raw,1547780,501769000000,,,-1238850265230654714,0.0,11.401872049930445,,,0,11,0.0,16397,220352926257542,14,29.202123641967773,-258.0795010653618,0.6365900593468177,4,-141760.48736919346,3.4028234663852886E38,1.56109798E9,,,,0,,5,,1.56109798E9
Raw,1547780,501769000000,,,-1238850265230654714,0.0,11.401872049930445,,,0,12,0.0,16,15404181,1000000000,9.328222274780273,519.3505174419761,2.99792458E8,4,115059.18593208557,3.4028234663852886E38,1.56109798E9,,,,0,,5,,1.56109798E9
Raw,1547781,501769000000,,,-1238850265230654714,0.0,11.401872049930445,,,0,13,0.0,16397,220352871355012,13,30.374088287353516,-67.48201564519442,0.5848050284580042,4,-9623.510528856952,3.4028234663852886E38,1.56109798E9,,,,0,,5,,1.56109798E9
Raw,1547781,501769000000,,,-1238850265230654714,0.0,11.401872049930445,,,0,24,0.0,16397,220352914148042,8,36.10844802856445,509.812371571785,0.32743974550553645,4,248958.9876277889,3.4028234663852886E38,1.56109798E9,,,,0,,5,,1.56109798E9
Raw,1547781,501769000000,,,-1238850265230654714,0.0,11.401872049930445,,,0,25,0.0,16397,220352926756762,10,33.642452239990234,136.4031033727656,0.4370032938001869,4,57710.75844323222,3.4028234663852886E38,1.56109798E9,,,,0,,5,,1.56109798E9
Raw,1547782,501769000000,,,-1238850265230654714,0.0,11.401872049930445,,,0,7,0.0,18474,220366902941349,1000000000,9.582866668701172,475.3877953503986,2.99792458E8,4,875.3691509394023,3.4028234663852886E38,1.57542003E9,,,,0,,6,,1.57542003E9
Raw,1547783,501769000000,,,-1238850265230654714,0.0,11.401872049930445,,,0,13,0.0,18440,220366908904734,1000000000,21.15166473388672,-668.5600356882746,2.99792458E8,4,-336329.9807219058,3.4028234663852886E38,1.57542003E9,,,,0,,6,,1.57542003E9
Raw,1547783,501769000000,,,-1238850265230654714,0.0,11.401872049930445,,,0,15,0.0,19498,220366919027264,17,35.797035217285156,-395.0524460699605,0.3394432605131106,4,-90222.86954487332,3.4028234663852886E38,1.57542003E9,,,,0,,6,,1.57542003E9
Raw,1547783,501769000000,,,-1238850265230654714,0.0,11.401872049930445,,,0,19,0.0,16,501001757571,1000000000,7.0,89.29870304198613,2.99792458E8,2,54.32230257361473,3.4028234663852886E38,1.57542003E9,,,,0,,6,,1.57542003E9
Raw,1547784,501769000000,,,-1238850265230654714,0.0,11.401872049930445,,,0,21,0.0,16,501003966438,1000000000,17.30272674560547,-467.8434731867919,2.99792458E8,2,-468.03007649703244,3.4028234663852886E38,1.57542003E9,,,,0,,6,,1.57542003E9
Raw,1547784,501769000000,,,-1238850265230654714,0.0,11.401872049930445,,,0,27,0.0,18440,220366922133282,1000000000,28.29656982421875,-128.40327769834568,2.99792458E8,4,-10902.264106096707,3.4028234663852886E38,1.57542003E9,,,,0,,6,,1.57542003E9
Raw,1547784,501769000000,,,-1238850265230654714,0.0,11.401872049930445,,,0,30,0.0,19498,220366921153117,23,32.58427810668945,279.40864318190177,299.79266173783594,4,24034.950046703576,3.4028234663852886E38,1.57542003E9,,,,0,,6,,1.57542003E9
Raw,1547784,501769000000,,,-1238850265230654714,0.0,11.401872049930445,,,0,13,0.0,16408,220366908904572,1000000000,8.670989990234375,-662.7342532299176,2.99792458E8,4,-406559.8389365191,3.4028234663852886E38,1.17645005E9,,,,0,,6,,1.17645005E9
Raw,1547785,501769000000,,,-1238850265230654714,0.0,11.401872049930445,,,0,15,0.0,17466,220366919027253,7,31.812175750732422,-395.25692711824377,0.006246111821383237,1,-122477.27979820922,0.003123055910691619,1.17645005E9,,,,0,,6,,1.17645005E9
Raw,1547785,501769000000,,,-1238850265230654714,0.0,11.401872049930445,,,0,27,0.0,17466,220366922133273,12,32.387046813964844,-128.1077688813075,0.005846100393682719,1,-14936.37241735069,0.002923050196841359,1.17645005E9,,,,0,,6,,1.17645005E9
Raw,1547785,501769000000,,,-1238850265230654714,0.0,11.401872049930445,,,0,30,0.0,16408,220366920914100,1000000000,7.541828155517578,2328.802176210067,2.99792458E8,4,91582.31525077517,3.4028234663852886E38,1.17645005E9,,,,1,,6,,1.17645005E9
Raw,1548721,502769000000,,,-1238850265230654876,0.0,11.110803198969373,,,0,2,0.0,16431,220367923425412,14,37.64101028442383,-103.60166799465878,0.002384213963523507,1,-25859.9672579733,0.09633894338094419,1.57542003E9,,,,0,,1,,1.57542003E9
Raw,1548721,502769000000,,,-1238850265230654876,0.0,11.110803198969373,,,0,6,0.0,16431,220367920636244,24,31.269287109375,222.95391687821427,0.546218428857649,4,96707.30946990075,3.4028234663852886E38,1.57542003E9,,,,1,,1,,1.57542003E9
Raw,1548721,502769000000,,,-1238850265230654876,0.0,11.110803198969373,,,0,12,0.0,16397,220367930288725,12,42.565391540527344,274.0215871451346,0.1517469121349284,4,59272.97449426374,3.4028234663852886E38,1.57542003E9,,,,0,,1,,1.57542003E9
Raw,1548721,502769000000,,,-1238850265230654876,0.0,11.110803198969373,,,0,14,0.0,16,3863872,1000000000,12.726446151733398,-145.55144818770532,2.99792458E8,4,-35130.22546773866,3.4028234663852886E38,1.57542003E9,,,,0,,1,,1.57542003E9
Raw,1548721,502769000000,,,-1238850265230654876,0.0,11.110803198969373,,,0,24,0.0,16431,220367922757877,13,38.599090576171875,583.8905567416568,0.21338961125816136,4,287414.8822528904,3.4028234663852886E38,1.57542003E9,,,,0,,1,,1.57542003E9
Raw,1548722,502769000000,,,-1238850265230654876,0.0,11.110803198969373,,,0,25,0.0,16431,220367931393875,16,36.113189697265625,-149.4925219240357,0.3267311366194323,4,-32877.576058534796,3.4028234663852886E38,1.57542003E9,,,,0,,1,,1.57542003E9
Raw,1548722,502769000000,,,-1238850265230654876,0.0,11.110803198969373,,,0,29,0.0,16431,220367929091933,30,28.861785888671875,-507.92474879972565,0.6524045188752954,4,-265977.2489097829,3.4028234663852886E38,1.57542003E9,,,,0,,1,,1.57542003E9
Raw,1548722,502769000000,,,-1238850265230654876,0.0,11.110803198969373,,,0,31,0.0,16,985021,1000000000,13.814199447631836,-653.0444063457435,2.99792458E8,4,-328924.16187448427,3.4028234663852886E38,1.57542003E9,,,,0,,1,,1.57542003E9
Raw,1548722,502769000000,,,-1238850265230654876,0.0,11.110803198969373,,,0,32,0.0,38,5924733214,1000000000,20.640165328979492,117.81793131026296,2.99792458E8,4,1197.0220032243415,3.4028234663852886E38,1.57542003E9,,,,1,,1,,1.57542003E9
Raw,1548722,502769000000,,,-1238850265230654876,0.0,11.110803198969373,,,0,6,0.0,16409,220367920636411,8,30.15665626525879,221.85128020435516,0.007125405594706535,1,116277.8787607295,0.0035627027973532677,1.17645005E9,,,,0,,1,,1.17645005E9
Raw,1548722,502769000000,,,-1238850265230654876,0.0,11.110803198969373,,,0,24,0.0,16409,220367922757885,12,35.46269226074219,583.8457723937859,0.35442985584130327,4,353194.69758105243,3.4028234663852886E38,1.17645005E9,,,,0,,1,,1.17645005E9
Raw,1548723,502769000000,,,-1238850265230654876,0.0,11.110803198969373,,,0,25,0.0,16409,220367931393874,8,31.27300262451172,-150.34574214062775,0.5443887933913254,4,-39302.61960102234,3.4028234663852886E38,1.17645005E9,,,,0,,1,,1.17645005E9
Raw,1548723,502769000000,,,-1238850265230654876,0.0,11.110803198969373,,,0,10,0.0,65,1934038247,33,38.513282775878906,135.52486663308582,0.21927725577153,4,44731.71982260021,3.4028234663852886E38,1.59806246E9,,,,0,,3,,1.59806246E9
Raw,1548723,502769000000,,,-1238850265230654876,0.0,11.110803198969373,,,0,2,0.0,99,1922602329,66,27.705583572387695,-55.46079240503397,0.7032303150014259,4,-20917.3826284946,3.4028234663852886E38,1.59975002E9,,,,0,,3,,1.59975002E9
Raw,1548723,502769000000,,,-1238850265230654876,0.0,11.110803198969373,,,0,9,0.0,99,1924342396,33,40.06721878051758,549.0954262943706,0.0017744904616847634,1,269354.34291172575,8.872452308423817E-4,1.60087501E9,,,,0,,3,,1.60087501E9
Raw,1548723,502769000000,,,-1238850265230654876,0.0,11.110803198969373,,,0,99,0.0,99,1919587082,46,32.166961669921875,-727.7080703957472,0.004404878709465265,1,-328549.0846176172,0.0022024393547326326,1.60143744E9,,,,0,,3,,1.60143744E9
Raw,1548723,502769000000,,,-1238850265230654876,0.0,11.110803198969373,,,0,11,0.0,99,1931104131,53,30.3355712890625,-521.5873490635681,0.5864919769212875,4,-140324.71491599674,3.4028234663852886E38,1.602E9,,,,0,,3,,1.602E9
Raw,1548723,502769000000,,,-1238850265230654876,0.0,11.110803198969373,,,0,1,0.0,32995,58349920943421,101,22.449216842651367,553.1085089786893,0.9393047799620984,4,265307.52911545197,3.4028234663852886E38,1.60256256E9,,,,0,,3,,1.60256256E9
Raw,1548724,502769000000,,,-1238850265230654876,0.0,11.110803198969373,,,0,20,0.0,99,1933515958,49,31.447818756103516,96.82182591763564,0.536909325083367,4,12081.45079089422,3.4028234663852886E38,1.60312499E9,,,,0,,3,,1.60312499E9
Raw,1548724,502769000000,,,-1238850265230654876,0.0,11.110803198969373,,,0,19,0.0,99,1921671478,235,11.989730834960938,720.7494107230455,1.4097869978787205,4,195408.6276034634,3.4028234663852886E38,1.60368755E9,,,,1,,3,,1.60368755E9
Raw,1548724,502769000000,,,-1238850265230654876,0.0,11.110803198969373,,,0,21,0.0,32995,58349930351572,51,30.785205841064453,-707.4508451773231,0.5661370951379117,4,-369008.7621641073,3.4028234663852886E38,1.60424998E9,,,,0,,3,,1.60424998E9
Raw,1548724,502769000000,,,-1238850265230654876,0.0,11.110803198969373,,,0,5,0.0,16905,220353867121059,36,26.56154441833496,-57.661032249241714,0.7544099828831721,4,-13103.079066134329,3.4028234663852886E38,1.56109798E9,,,,1,,5,,1.56109798E9
Raw,1548724,502769000000,,,-1238850265230654876,0.0,11.110803198969373,,,0,11,0.0,16397,220353926258396,17,27.40070343017578,-258.0648285678287,0.7175980674447273,4,-142019.55153333055,3.4028234663852886E38,1.56109798E9,,,,0,,5,,1.56109798E9
Raw,1548724,502769000000,,,-1238850265230654876,0.0,11.110803198969373,,,0,12,0.0,16,15402443,1000000000,7.0,519.7252199689879,2.99792458E8,4,115579.78092986485,3.4028234663852886E38,1.56109798E9,,,,0,,5,,1.56109798E9
Raw,1548725,502769000000,,,-1238850265230654876,0.0,11.110803198969373,,,0,13,0.0,16397,220353871355231,11,32.70206069946289,-66.9998170503097,0.48011879951290415,4,-9690.792780271462,3.4028234663852886E38,1.56109798E9,,,,0,,5,,1.56109798E9
Raw,1548725,502769000000,,,-1238850265230654876,0.0,11.110803198969373,,,0,24,0.0,16397,220353914146361,8,35.84588623046875,510.2775769291038,0.0029584732837975025,1,249469.26520471802,0.09749897979703699,1.56109798E9,,,,0,,5,,1.56109798E9
Raw,1548725,502769000000,,,-1238850265230654876,0.0,11.110803198969373,,,0,25,0.0,16397,220353926756308,10,33.11005783081055,135.87561314109917,0.004053768701851368,1,57846.63405637332,0.09804662750606392,1.56109798E9,,,,0,,5,,1.56109798E9
Raw,1548725,502769000000,,,-1238850265230654876,0.0,11.110803198969373,,,0,7,0.0,16,502002939708,1000000000,16.310779571533203,475.45524453185726,2.99792458E8,2,493.028533381625,3.4028234663852886E38,1.57542003E9,,,,0,,6,,1.57542003E9
Raw,1548726,502769000000,,,-1238850265230654876,0.0,11.110803198969373,,,0,13,0.0,18440,220367908906970,1000000000,22.044626235961914,-668.5234992948822,2.99792458E8,4,-336999.83273674216,3.4028234663852886E38,1.57542003E9,,,,0,,6,,1.57542003E9
Raw,1548726,502769000000,,,-1238850265230654876,0.0,11.110803198969373,,,0,15,0.0,19498,220367919028581,15,36.853179931640625,-394.4662278177682,0.2919499231706064,4,-90617.69416181544,3.4028234663852886E38,1.57542003E9,,,,0,,6,,1.57542003E9
Raw,1548726,502769000000,,,-1238850265230654876,0.0,11.110803198969373,,,0,19,0.0,16,502001757274,1000000000,17.77824592590332,89.29870304198613,2.99792458E8,2,54.318810933384775,3.4028234663852886E38,1.57542003E9,,,,0,,6,,1.57542003E9
Raw,1548726,502769000000,,,-1238850265230654876,0.0,11.110803198969373,,,0,21,0.0,18474,220367911968001,1000000000,13.055975914001465,-467.53584493421704,2.99792458E8,4,-840.8415506651093,3.4028234663852886E38,1.57542003E9,,,,0,,6,,1.57542003E9
Raw,1548726,502769000000,,,-1238850265230654876,0.0,11.110803198969373,,,0,27,0.0,18440,220367922133712,1000000000,33.033531188964844,-127.97480157555503,2.99792458E8,4,-11030.663963576637,3.4028234663852886E38,1.57542003E9,,,,0,,6,,1.57542003E9
Raw,1548726,502769000000,,,-1238850265230654876,0.0,11.110803198969373,,,0,30,0.0,19498,220367921152187,17,36.85779571533203,279.0769867974783,299.79266173783594,4,24309.646361546307,3.4028234663852886E38,1.57542003E9,,,,0,,6,,1.57542003E9
Raw,1548727,502769000000,,,-1238850265230654876,0.0,11.110803198969373,,,0,13,0.0,16408,220367908906826,1000000000,7.357387542724609,-675.6553214871933,2.99792458E8,4,-407235.43830854853,3.4028234663852886E38,1.17645005E9,,,,0,,6,,1.17645005E9
Raw,1548727,502769000000,,,-1238850265230654876,0.0,11.110803198969373,,,0,15,0.0,17466,220367919028574,9,31.47473907470703,-394.7893677999091,0.006122170481830835,1,-122872.06916600913,0.0030610852409154177,1.17645005E9,,,,0,,6,,1.17645005E9
Raw,1548727,502769000000,,,-1238850265230654876,0.0,11.110803198969373,,,0,21,0.0,16408,220367911967941,1000000000,7.0,-467.3889154641472,2.99792458E8,4,-6625.062020071405,3.4028234663852886E38,1.17645005E9,,,,0,,6,,1.17645005E9
Raw,1548727,502769000000,,,-1238850265230654876,0.0,11.110803198969373,,,0,27,0.0,17466,220367922133704,10,31.63805389404297,-127.6361857857446,0.006008133292198181,1,-15064.008603136435,0.0030040666460990906,1.17645005E9,,,,0,,6,,1.17645005E9
Raw,1548727,502769000000,,,-1238850265230654876,0.0,11.110803198969373,,,0,30,0.0,16408,220367920906141,1000000000,7.0,2361.010097624123,2.99792458E8,4,93964.91664138199,3.4028234663852886E38,1.17645005E9,,,,1,,6,,1.17645005E9
Raw,1549736,503769000000,,,-1238850265230655044,0.0,11.21922514508142,,,0,2,0.0,16431,220368923425751,20,33.586524963378906,-103.64487230905434,0.003585033118724823,1,-25963.612130282356,0.0017925165593624115,1.57542003E9,,,,0,,1,,1.57542003E9
Raw,1549736,503769000000,,,-1238850265230655044,0.0,11.21922514508142,,,0,6,0.0,16431,220368920635497,38,25.81230926513672,220.97669132795647,0.7916123820910754,4,96930.83183948812,3.4028234663852886E38,1.57542003E9,,,,1,,1,,1.57542003E9
Raw,1549736,503769000000,,,-1238850265230655044,0.0,11.21922514508142,,,0,12,0.0,16397,220368930287817,16,36.07162094116211,273.7197665980493,0.0028563716914504766,1,59546.69426086179,0.0014281858457252383,1.57542003E9,,,,0,,1,,1.57542003E9
Raw,1549736,503769000000,,,-1238850265230655044,0.0,11.21922514508142,,,0,14,0.0,16,3864353,1000000000,12.547815322875977,-145.36580104702557,2.99792458E8,4,-35275.75997364511,3.4028234663852886E38,1.57542003E9,,,,0,,1,,1.57542003E9
Raw,1549737,503769000000,,,-1238850265230655044,0.0,11.21922514508142,,,0,24,0.0,16431,220368922755944,20,33.939796447753906,583.8103439263067,0.003650950500741601,1,287998.6925968167,0.0018254752503708005,1.57542003E9,,,,0,,1,,1.57542003E9
Raw,1549737,503769000000,,,-1238850265230655044,0.0,11.21922514508142,,,0,25,0.0,16431,220368931394394,22,32.425079345703125,-150.47635227971475,0.0040979390032589436,1,-33028.05241081451,0.0020489695016294718,1.57542003E9,,,,0,,1,,1.57542003E9
Raw,1549737,503769000000,,,-1238850265230655044,0.0,11.21922514508142,,,0,29,0.0,16431,220368929093654,36,26.394229888916016,-507.4123531483617,0.7633680772956479,4,-266484.9399432211,3.4028234663852886E38,1.57542003E9,,,,0,,1,,1.57542003E9
Raw,1549737,503769000000,,,-1238850265230655044,0.0,11.21922514508142,,,0,31,0.0,16,987197,1000000000,13.082405090332031,-653.1245001185721,2.99792458E8,4,-329577.6164135841,3.4028234663852886E38,1.57542003E9,,,,0,,1,,1.57542003E9
Raw,1549737,503769000000,,,-1238850265230655044,0.0,11.21922514508142,,,0,32,0.0,38,924732852,1000000000,15.308388710021973,117.67900269686186,2.99792458E8,4,1313.7616884682088,3.4028234663852886E38,1.57542003E9,,,,1,,1,,1.57542003E9
Raw,1549737,503769000000,,,-1238850265230655044,0.0,11.21922514508142,,,0,6,0.0,16409,220368920635677,27,25.416133880615234,221.692065049142,0.809428054296204,4,116499.5849341749,3.4028234663852886E38,1.17645005E9,,,,0,,1,,1.17645005E9
Raw,1549738,503769000000,,,-1238850265230655044,0.0,11.21922514508142,,,0,24,0.0,16409,220368922755942,12,31.98630142211914,583.8934542723582,0.005772012751549482,1,353778.5910353248,0.002886006375774741,1.17645005E9,,,,0,,1,,1.17645005E9
Raw,1549738,503769000000,,,-1238850265230655044,0.0,11.21922514508142,,,0,25,0.0,16409,220368931394377,13,29.418960571289062,-150.368325833173,0.0077570099383592606,1,-39452.987926855516,0.0038785049691796303,1.17645005E9,,,,0,,1,,1.17645005E9
Raw,1549738,503769000000,,,-1238850265230655044,0.0,11.21922514508142,,,0,10,0.0,65,934037824,42,33.15727996826172,135.19377727917163,0.003938531503081322,1,44866.91359987938,0.001969265751540661,1.59806246E9,,,,0,,3,,1.59806246E9
Raw,1549738,503769000000,,,-1238850265230655044,0.0,11.21922514508142,,,0,2,0.0,99,922602657,97,22.873920440673828,-55.1979058972594,0.9205048436902779,4,-20973.130712463182,3.4028234663852886E38,1.59975002E9,,,,0,,3,,1.59975002E9
Raw,1549738,503769000000,,,-1238850265230655044,0.0,11.21922514508142,,,0,9,0.0,99,924340566,36,35.143741607666016,549.3727990841371,0.3690573871646443,4,269903.41604365135,3.4028234663852886E38,1.60087501E9,,,,0,,3,,1.60087501E9
Raw,1549738,503769000000,,,-1238850265230655044,0.0,11.21922514508142,,,0,99,0.0,99,919589514,71,26.779558181762695,-727.7540371876134,0.7479281253851338,4,-329277.07255779294,3.4028234663852886E38,1.60143744E9,,,,0,,3,,1.60143744E9
Raw,1549739,503769000000,,,-1238850265230655044,0.0,11.21922514508142,,,0,11,0.0,99,931105831,81,25.105796813964844,-521.9855003206676,0.821669380975512,4,-140845.95835872405,3.4028234663852886E38,1.602E9,,,,0,,3,,1.602E9
Raw,1549739,503769000000,,,-1238850265230655044,0.0,11.21922514508142,,,0,1,0.0,32995,58350920941531,155,17.117431640625,552.7605952625045,1.179068737408663,4,265861.2375434332,3.4028234663852886E38,1.60256256E9,,,,0,,3,,1.60256256E9
Raw,1549739,503769000000,,,-1238850265230655044,0.0,11.21922514508142,,,0,20,0.0,99,933515653,64,28.128368377685547,96.99850937224988,0.686181165231571,4,12178.23885068963,3.4028234663852886E38,1.60312499E9,,,,0,,3,,1.60312499E9
Raw,1549740,503769000000,,,-1238850265230655044,0.0,11.21922514508142,,,0,19,0.0,99,921669248,252,11.129524230957031,720.0585593293281,1.4484689884169608,4,196129.31605789668,3.4028234663852886E38,1.60368755E9,,,,1,,3,,1.60368755E9
Raw,1549740,503769000000,,,-1238850265230655044,0.0,11.21922514508142,,,0,21,0.0,32995,58350930353931,71,26.79827308654785,-707.3614128114073,0.7454253281188357,4,-369716.309825074,3.4028234663852886E38,1.60424998E9,,,,0,,3,,1.60424998E9
Raw,1549740,503769000000,,,-1238850265230655044,0.0,11.21922514508142,,,0,5,0.0,16904,220354867121356,1000000000,21.51004409790039,-57.614237036435895,2.99792458E8,4,-13160.805479858807,3.4028234663852886E38,1.56109798E9,,,,1,,5,,1.56109798E9
Raw,1549740,503769000000,,,-1238850265230655044,0.0,11.21922514508142,,,0,11,0.0,16397,220354926259290,23,23.360782623291016,-257.74959992744925,0.8992688105846511,4,-142277.00454084828,3.4028234663852886E38,1.56109798E9,,,,0,,5,,1.56109798E9
Raw,1549740,503769000000,,,-1238850265230655044,0.0,11.21922514508142,,,0,12,0.0,16,15400710,1000000000,8.395503997802734,519.7252199689879,2.99792458E8,4,116099.9917229927,3.4028234663852886E38,1.56109798E9,,,,0,,5,,1.56109798E9
Raw,1549741,503769000000,,,-1238850265230655044,0.0,11.21922514508142,,,0,13,0.0,16397,220354871355465,16,27.83551025390625,-66.53733941683049,0.6989620864276249,4,-9758.100214807986,3.4028234663852886E38,1.56109798E9,,,,0,,5,,1.56109798E9
Raw,1549741,503769000000,,,-1238850265230655044,0.0,11.21922514508142,,,0,24,0.0,16397,220354914144655,13,30.665952682495117,510.85437451505686,0.5721820048925599,4,249979.87590527796,3.4028234663852886E38,1.56109798E9,,,,1,,5,,1.56109798E9
Raw,1549741,503769000000,,,-1238850265230655044,0.0,11.21922514508142,,,0,25,0.0,16397,220354926755860,13,30.22686767578125,135.90573435824626,0.005326504353433847,1,57982.539790731564,0.09868299533185516,1.56109798E9,,,,0,,5,,1.56109798E9
Raw,1549741,503769000000,,,-1238850265230655044,0.0,11.21922514508142,,,0,7,0.0,16,503002938122,1000000000,7.0,475.45524453185726,2.99792458E8,2,493.4561177533824,3.4028234663852886E38,1.57542003E9,,,,0,,6,,1.57542003E9
Raw,1549741,503769000000,,,-1238850265230655044,0.0,11.21922514508142,,,0,13,0.0,18440,220368908909190,1000000000,17.42510223388672,-669.5546980994363,2.99792458E8,4,-337671.52403064223,3.4028234663852886E38,1.57542003E9,,,,0,,6,,1.57542003E9
Raw,1549741,503769000000,,,-1238850265230655044,0.0,11.21922514508142,,,0,15,0.0,19498,220368919029920,21,33.0618896484375,-395.3484611814056,0.004039254505187273,1,-91013.04262299684,0.0020196272525936365,1.57542003E9,,,,0,,6,,1.57542003E9
Raw,1549742,503769000000,,,-1238850265230655044,0.0,11.21922514508142,,,0,19,0.0,16,503001756971,1000000000,7.0,89.48435870328001,2.99792458E8,2,54.3210872270642,3.4028234663852886E38,1.57542003E9,,,,0,,6,,1.57542003E9
Raw,1549742,503769000000,,,-1238850265230655044,0.0,11.21922514508142,,,0,21,0.0,18474,220368911969559,1000000000,12.195770263671875,-467.7468835050063,2.99792458E8,4,-1310.1937518205673,3.4028234663852886E38,1.57542003E9,,,,0,,6,,1.57542003E9
Raw,1549742,503769000000,,,-1238850265230655044,0.0,11.21922514508142,,,0,27,0.0,18440,220368922134153,1000000000,29.9332332611084,-127.9493419805325,2.99792458E8,4,-11158.722117239557,3.4028234663852886E38,1.57542003E9,,,,1,,6,,1.57542003E9
Raw,1549742,503769000000,,,-1238850265230655044,0.0,11.21922514508142,,,0,30,0.0,18440,220368921151260,1000000000,32.419410705566406,278.3353695847702,2.99792458E8,4,24588.40893237579,3.4028234663852886E38,1.57542003E9,,,,1,,6,,1.57542003E9
Raw,1549742,503769000000,,,-1238850265230655044,0.0,11.21922514508142,,,0,13,0.0,16408,220368908909051,1000000000,7.0,-672.5330958100517,2.99792458E8,4,-407904.73781983426,3.4028234663852886E38,1.17645005E9,,,,1,,6,,1.17645005E9
Raw,1549742,503769000000,,,-1238850265230655044,0.0,11.21922514508142,,,0,15,0.0,17466,220368919029890,9,30.582656860351562,-395.32501290878287,0.006784369237720966,1,-123267.39417891791,0.003392184618860483,1.17645005E9,,,,0,,6,,1.17645005E9
Raw,1549743,503769000000,,,-1238850265230655044,0.0,11.21922514508142,,,0,21,0.0,16408,220368911969492,1000000000,7.0,-464.8979650467211,2.99792458E8,4,-7089.935279191081,3.4028234663852886E38,1.17645005E9,,,,0,,6,,1.17645005E9
Raw,1549743,503769000000,,,-1238850265230655044,0.0,11.21922514508142,,,0,27,0.0,17466,220368922134131,13,28.874597549438477,-128.3175697623119,0.008258714340627193,1,-15192.326172898747,0.004129357170313597,1.17645005E9,,,,0,,6,,1.17645005E9
Raw,1549743,503769000000,,,-1238850265230655044,0.0,11.21922514508142,,,0,30,0.0,16408,220368920898081,1000000000,7.0,2393.8784007157647,2.99792458E8,4,96380.33636827036,3.4028234663852886E38,1.17645005E9,,,,1,,6,,1.17645005E9
Raw,1550732,504769000000,,,-1238850265230655209,0.0,11.299276316132577,,,0,2,0.0,16431,220369923426098,25,31.041671752929688,-103.47773059820247,0.004805469885468483,1,-26067.08986088056,0.0024027349427342415,1.57542003E9,,,,0,,1,,1.57542003E9
Raw,1550733,504769000000,,,-1238850265230655209,0.0,11.299276316132577,,,0,6,0.0,16431,220369920634645,44,24.108238220214844,221.0503775989588,0.8682424587082513,4,97153.6124105467,3.4028234663852886E38,1.57542003E9,,,,1,,1,,1.57542003E9
Raw,1550733,504769000000,,,-1238850265230655209,0.0,11.299276316132577,,,0,12,0.0,16397,220369930286896,20,33.420223236083984,273.80829605358304,0.0038760064635425806,1,59820.50255691537,0.0019380032317712903,1.57542003E9,,,,0,,1,,1.57542003E9
Raw,1550733,504769000000,,,-1238850265230655209,0.0,11.299276316132577,,,0,14,0.0,16,3864844,1000000000,11.780406951904297,-145.36580104702557,2.99792458E8,4,-35422.63708700014,3.4028234663852886E38,1.57542003E9,,,,0,,1,,1.57542003E9
Raw,1550733,504769000000,,,-1238850265230655209,0.0,11.299276316132577,,,0,24,0.0,16431,220369922754035,23,31.969863891601562,583.9050559353782,0.0043184333480894566,1,288582.59765275207,0.0021592166740447283,1.57542003E9,,,,0,,1,,1.57542003E9
Raw,1550733,504769000000,,,-1238850265230655209,0.0,11.299276316132577,,,0,25,0.0,16431,220369931394879,23,31.820716857910156,-150.3610114124967,0.004393226467072964,1,-33178.41342222701,0.002196613233536482,1.57542003E9,,,,0,,1,,1.57542003E9
Raw,1550733,504769000000,,,-1238850265230655209,0.0,11.299276316132577,,,0,29,0.0,16431,220369929095377,42,24.58346939086914,-507.60965648917227,0.84479619161058,4,-266992.6524207641,3.4028234663852886E38,1.57542003E9,,,,0,,1,,1.57542003E9
Raw,1550734,504769000000,,,-1238850265230655209,0.0,11.299276316132577,,,0,31,0.0,16,989385,1000000000,12.222190856933594,-653.1245001185721,2.99792458E8,4,-330230.85584829364,3.4028234663852886E38,1.57542003E9,,,,0,,1,,1.57542003E9
Raw,1550734,504769000000,,,-1238850265230655209,0.0,11.299276316132577,,,0,32,0.0,36,1924732762,1000000000,14.448176383972168,117.58441535939693,2.99792458E8,4,1430.0673042082653,3.4028234663852886E38,1.57542003E9,,,,1,,1,,1.57542003E9
Raw,1550734,504769000000,,,-1238850265230655209,0.0,11.299276316132577,,,0,6,0.0,16409,220369920634926,52,21.253772735595703,222.16269265003723,0.9966045786451154,4,116721.39529388919,3.4028234663852886E38,1.17645005E9,,,,0,,1,,1.17645005E9
Raw,1550734,504769000000,,,-1238850265230655209,0.0,11.299276316132577,,,0,24,0.0,16409,220369922753998,15,31.723663330078125,583.9264826922446,0.005949207581579685,1,354362.51751801703,0.0029746037907898426,1.17645005E9,,,,1,,1,,1.17645005E9
Raw,1550734,504769000000,,,-1238850265230655209,0.0,11.299276316132577,,,0,25,0.0,16409,220369931394882,14,31.548744201660156,-150.36459275616653,0.006070230156183243,1,-39603.35251961168,0.0030351150780916214,1.17645005E9,,,,0,,1,,1.17645005E9
Raw,1550734,504769000000,,,-1238850265230655209,0.0,11.299276316132577,,,0,10,0.0,32995,58351934037355,47,31.863452911376953,135.2420556840807,0.004309723153710365,1,45002.15565556346,0.0021548615768551826,1.59806246E9,,,,0,,3,,1.59806246E9
Raw,1550735,504769000000,,,-1238850265230655209,0.0,11.299276316132577,,,0,2,0.0,98,1922602816,1000000000,17.56081771850586,-54.946586123167265,2.99792458E8,4,-21028.287715362607,3.4028234663852886E38,1.59975002E9,,,,0,,3,,1.59975002E9
Raw,1550735,504769000000,,,-1238850265230655209,0.0,11.299276316132577,,,0,9,0.0,32995,58351924338762,50,31.12847900390625,549.1919575698271,0.5496189194197252,4,270452.53488233144,3.4028234663852886E38,1.60087501E9,,,,0,,3,,1.60087501E9
Raw,1550735,504769000000,,,-1238850265230655209,0.0,11.299276316132577,,,0,99,0.0,98,1919591980,1000000000,21.72997283935547,-727.6571748461756,2.99792458E8,4,-330006.32070968905,3.4028234663852886E38,1.60143744E9,,,,0,,3,,1.60143744E9
Raw,1550736,504769000000,,,-1238850265230655209,0.0,11.299276316132577,,,0,11,0.0,99,1931107638,116,20.722410202026367,-521.4195611301063,1.0187856011116754,4,-141367.33711020206,3.4028234663852886E38,1.602E9,,,,0,,3,,1.602E9
Raw,1550736,504769000000,,,-1238850265230655209,0.0,11.299276316132577,,,0,1,0.0,32995,58351920939798,201,13.912185668945312,552.7187420058945,1.323204777389586,4,266414.19318225613,3.4028234663852886E38,1.60256256E9,,,,0,,3,,1.60256256E9
Raw,1550736,504769000000,,,-1238850265230655209,0.0,11.299276316132577,,,0,20,0.0,99,1933515336,78,25.58664894104004,96.946951136145,0.8004794124400294,4,12275.184257160126,3.4028234663852886E38,1.60312499E9,,,,0,,3,,1.60312499E9
Raw,1550736,504769000000,,,-1238850265230655209,0.0,11.299276316132577,,,0,19,0.0,99,1921666693,259,10.775793075561523,721.395682263631,1.4643756436530246,4,196849.1895392041,3.4028234663852886E38,1.60368755E9,,,,1,,3,,1.60368755E9
Raw,1550736,504769000000,,,-1238850265230655209,0.0,11.299276316132577,,,0,21,0.0,32995,58351930356331,57,29.39284324645996,-707.3693881062336,0.6287508946446776,4,-370423.6484111781,3.4028234663852886E38,1.60424998E9,,,,0,,3,,1.60424998E9
Raw,1550736,504769000000,,,-1238850265230655209,0.0,11.299276316132577,,,0,5,0.0,16904,220355867121557,1000000000,16.56420135498047,-57.87595195976749,2.99792458E8,4,-13219.277548034566,3.4028234663852886E38,1.56109798E9,,,,1,,5,,1.56109798E9
Raw,1550737,504769000000,,,-1238850265230655209,0.0,11.299276316132577,,,0,11,0.0,16397,220355926260129,17,27.163188934326172,-257.8990514993018,0.7282791232286483,4,-142534.86156833917,3.4028234663852886E38,1.56109798E9,,,,0,,5,,1.56109798E9
Raw,1550737,504769000000,,,-1238850265230655209,0.0,11.299276316132577,,,0,12,0.0,16,15398982,1000000000,7.048061370849609,520.0999224959996,2.99792458E8,4,116619.26227057187,3.4028234663852886E38,1.56109798E9,,,,0,,5,,1.56109798E9
Raw,1550737,504769000000,,,-1238850265230655209,0.0,11.299276316132577,,,0,13,0.0,16397,220355871355681,21,24.652835845947266,-67.71389563814736,0.8420833079521217,4,-9825.41374287903,3.4028234663852886E38,1.56109798E9,,,,1,,5,,1.56109798E9
Raw,1550737,504769000000,,,-1238850265230655209,0.0,11.299276316132577,,,0,24,0.0,16397,220355914143007,18,26.205242156982422,510.20275202879725,0.7727747687286457,4,250489.9410492154,3.4028234663852886E38,1.56109798E9,,,,1,,5,,1.56109798E9
Raw,1550737,504769000000,,,-1238850265230655209,0.0,11.299276316132577,,,0,25,0.0,16397,220355926755406,13,30.041065216064453,135.9411172269538,0.005441672168672086,1,58118.48090795852,0.09874057923947428,1.56109798E9,,,,0,,5,,1.56109798E9
Raw,1550737,504769000000,,,-1238850265230655209,0.0,11.299276316132577,,,0,7,0.0,16,504002936536,1000000000,7.0,475.45524453185726,2.99792458E8,2,493.4375271285154,3.4028234663852886E38,1.57542003E9,,,,0,,6,,1.57542003E9
Raw,1550738,504769000000,,,-1238850265230655209,0.0,11.299276316132577,,,0,13,0.0,18440,220369908911384,1000000000,13.12506103515625,-669.601936384177,2.99792458E8,4,-338344.99984651094,3.4028234663852886E38,1.57542003E9,,,,0,,6,,1.57542003E9
Raw,1550738,504769000000,,,-1238850265230655209,0.0,11.299276316132577,,,0,15,0.0,19498,220369919031216,23,32.04667663574219,-395.3038831234735,0.004280413035303354,1,-91408.34650612032,0.002140206517651677,1.57542003E9,,,,0,,6,,1.57542003E9
Raw,1550738,504769000000,,,-1238850265230655209,0.0,11.299276316132577,,,0,19,0.0,18474,220369909756678,1000000000,8.911954879760742,90.66600599153998,2.99792458E8,4,123.6638603724671,3.4028234663852886E38,1.57542003E9,,,,0,,6,,1.57542003E9
Raw,1550738,504769000000,,,-1238850265230655209,0.0,11.299276316132577,,,0,21,0.0,16,504003971126,1000000000,7.0,-468.7717770551037,2.99792458E8,2,-468.0666618544232,3.4028234663852886E38,1.57542003E9,,,,0,,6,,1.57542003E9
Raw,1550738,504769000000,,,-1238850265230655209,0.0,11.299276316132577,,,0,27,0.0,18440,220369922134566,1000000000,25.86416244506836,-128.06120060284036,2.99792458E8,4,-11285.387026976356,3.4028234663852886E38,1.57542003E9,,,,0,,6,,1.57542003E9
Raw,1550738,504769000000,,,-1238850265230655209,0.0,11.299276316132577,,,0,30,0.0,18440,220369921150327,1000000000,28.09414291381836,278.4737954819376,2.99792458E8,4,24866.076137029162,3.4028234663852886E38,1.57542003E9,,,,0,,6,,1.57542003E9
Raw,1550739,504769000000,,,-1238850265230655209,0.0,11.299276316132577,,,0,13,0.0,16408,220369908911279,1000000000,7.0,-667.5657141016782,2.99792458E8,4,-408573.4632614261,3.4028234663852886E38,1.17645005E9,,,,1,,6,,1.17645005E9
Raw,1550739,504769000000,,,-1238850265230655209,0.0,11.299276316132577,,,0,15,0.0,17466,220369919031211,12,30.981016159057617,-395.3350832240976,0.0064802467823028564,1,-123662.729262142,0.0032401233911514282,1.17645005E9,,,,0,,6,,1.17645005E9
Raw,1550739,504769000000,,,-1238850265230655209,0.0,11.299276316132577,,,0,19,0.0,16408,220369909756730,1000000000,7.0,87.01688257778397,2.99792458E8,4,891.1941074520993,3.4028234663852886E38,1.17645005E9,,,,0,,6,,1.17645005E9
Raw,1550739,504769000000,,,-1238850265230655209,0.0,11.299276316132577,,,0,27,0.0,17466,220369922134563,10,29.90973663330078,-128.38048275776964,0.007330869324505329,1,-15320.706655656517,0.0036654346622526646,1.17645005E9,,,,0,,6,,1.17645005E9
Raw,1550739,504769000000,,,-1238850265230655209,0.0,11.299276316132577,,,0,30,0.0,16408,220369920889900,1000000000,7.0,2425.8774648362487,2.99792458E8,4,98827.92687683571,3.4028234663852886E38,1.17645005E9,,,,1,,6,,1.17645005E9
Raw,1551741,505769000000,,,-1238850265230655373,0.0,11.077907287672108,,,0,2,0.0,16431,220370923426432,26,30.422765731811523,-103.3558099397851,0.005160373635590076,1,-26170.445670820343,0.0025801868177950382,1.57542003E9,,,,0,,1,,1.57542003E9
Raw,1551741,505769000000,,,-1238850265230655373,0.0,11.077907287672108,,,0,6,0.0,16431,220370920633879,43,24.223674774169922,221.93505592292138,0.8630512079818229,4,97375.52261765549,3.4028234663852886E38,1.57542003E9,,,,1,,1,,1.57542003E9
Raw,1551741,505769000000,,,-1238850265230655373,0.0,11.077907287672108,,,0,12,0.0,16397,220370930285995,22,32.76688003540039,273.8765937340504,0.004178800620138645,1,60094.37915064942,0.0020894003100693226,1.57542003E9,,,,0,,1,,1.57542003E9
Raw,1551742,505769000000,,,-1238850265230655373,0.0,11.077907287672108,,,0,14,0.0,16,3865333,1000000000,10.920206069946289,-146.10840665097282,2.99792458E8,4,-35568.03029973879,3.4028234663852886E38,1.57542003E9,,,,0,,1,,1.57542003E9
Raw,1551742,505769000000,,,-1238850265230655373,0.0,11.077907287672108,,,0,24,0.0,16431,220370922752083,25,31.126506805419922,583.9487889024313,0.004758763592690229,1,289166.5464416545,0.0023793817963451147,1.57542003E9,,,,0,,1,,1.57542003E9
Raw,1551742,505769000000,,,-1238850265230655373,0.0,11.077907287672108,,,0,25,0.0,16431,220370931395389,24,31.656789779663086,-150.29054307548358,0.004476926289498807,1,-33328.70396530249,0.002238463144749403,1.57542003E9,,,,0,,1,,1.57542003E9
Raw,1551742,505769000000,,,-1238850265230655373,0.0,11.077907287672108,,,0,29,0.0,16431,220370929097056,31,28.540313720703125,-507.4836195649509,0.6668616711996713,4,-267500.1667959386,3.4028234663852886E38,1.57542003E9,,,,0,,1,,1.57542003E9
Raw,1551742,505769000000,,,-1238850265230655373,0.0,11.077907287672108,,,0,31,0.0,16,991564,1000000000,11.361989974975586,-654.0527699044274,2.99792458E8,4,-330885.5023959498,3.4028234663852886E38,1.57542003E9,,,,0,,1,,1.57542003E9
Raw,1551742,505769000000,,,-1238850265230655373,0.0,11.077907287672108,,,0,32,0.0,36,2924732097,1000000000,13.605094909667969,118.07320890961881,2.99792458E8,4,1547.9638192629668,3.4028234663852886E38,1.57542003E9,,,,1,,1,,1.57542003E9
Raw,1551743,505769000000,,,-1238850265230655373,0.0,11.077907287672108,,,0,6,0.0,16409,220370920634195,74,20.028879165649414,221.90986898755102,1.0516864880968297,4,116943.28351507762,3.4028234663852886E38,1.17645005E9,,,,0,,1,,1.17645005E9
Raw,1551743,505769000000,,,-1238850265230655373,0.0,11.077907287672108,,,0,24,0.0,16409,220370922752049,10,30.80191993713379,583.9329887988279,0.006615250371396542,1,354946.45050681586,0.003307625185698271,1.17645005E9,,,,0,,1,,1.17645005E9
Raw,1551743,505769000000,,,-1238850265230655373,0.0,11.077907287672108,,,0,25,0.0,16409,220370931395383,8,31.73827362060547,-150.29107435568585,0.005939209368079901,1,-39753.64359396737,0.0029696046840399504,1.17645005E9,,,,0,,1,,1.17645005E9
Raw,1551744,505769000000,,,-1238850265230655373,0.0,11.077907287672108,,,0,10,0.0,32995,58352934036896,50,31.118398666381836,135.34416513179167,0.004695719573646784,1,45137.49982069525,0.002347859786823392,1.59806246E9,,,,0,,3,,1.59806246E9
Raw,1551744,505769000000,,,-1238850265230655373,0.0,11.077907287672108,,,0,2,0.0,99,922603056,187,14.830045700073242,-54.72257491736403,1.2822288777658457,4,-21082.809764208912,3.4028234663852886E38,1.59975002E9,,,,0,,3,,1.59975002E9
Raw,1551744,505769000000,,,-1238850265230655373,0.0,11.077907287672108,,,0,9,0.0,32995,58352924336907,58,29.366365432739258,549.1645426328178,0.00573508907109499,1,271001.69942496426,0.002867544535547495,1.60087501E9,,,,0,,3,,1.60087501E9
Raw,1551744,505769000000,,,-1238850265230655373,0.0,11.077907287672108,,,0,99,0.0,98,919594378,1000000000,17.88357162475586,-729.8770334044193,2.99792458E8,4,-330736.9398484423,3.4028234663852886E38,1.60143744E9,,,,0,,3,,1.60143744E9
Raw,1551744,505769000000,,,-1238850265230655373,0.0,11.077907287672108,,,0,11,0.0,99,931109391,130,20.45927619934082,-521.1338819795321,299.79446810803165,4,-141889.03753612473,3.4028234663852886E38,1.602E9,,,,1,,3,,1.602E9
Raw,1551745,505769000000,,,-1238850265230655373,0.0,11.077907287672108,,,0,1,0.0,32994,58352920937834,1000000000,9.444906234741211,552.9164202537268,2.99792458E8,4,266967.09154226386,3.4028234663852886E38,1.60256256E9,,,,0,,3,,1.60256256E9
Raw,1551745,505769000000,,,-1238850265230655373,0.0,11.077907287672108,,,0,20,0.0,99,933514999,83,24.929672241210938,97.09981095364981,0.8300228446211975,4,12372.283525565874,3.4028234663852886E38,1.60312499E9,,,,0,,3,,1.60312499E9
Raw,1551745,505769000000,,,-1238850265230655373,0.0,11.077907287672108,,,0,19,0.0,99,921664070,278,9.915596008300781,718.9733739136418,1.4992615674614411,4,197569.00404739226,3.4028234663852886E38,1.60368755E9,,,,1,,3,,1.60368755E9
Raw,1551745,505769000000,,,-1238850265230655373,0.0,11.077907287672108,,,0,21,0.0,32995,58352930358664,49,31.25168800354004,-707.2426820754191,0.004606375936418772,1,-371130.8910932535,0.002303187968209386,1.60424998E9,,,,0,,3,,1.60424998E9
Raw,1551745,505769000000,,,-1238850265230655373,0.0,11.077907287672108,,,0,5,0.0,16904,220356867121583,1000000000,15.064486503601074,-58.92279461186561,2.99792458E8,4,-13277.666891820869,3.4028234663852886E38,1.56109798E9,,,,1,,5,,1.56109798E9
Raw,1551745,505769000000,,,-1238850265230655373,0.0,11.077907287672108,,,0,11,0.0,16397,220356926260985,15,28.353979110717773,-257.66079808697907,0.6747307246185668,4,-142792.58908195278,3.4028234663852886E38,1.56109798E9,,,,0,,5,,1.56109798E9
Raw,1551746,505769000000,,,-1238850265230655373,0.0,11.077907287672108,,,0,12,0.0,16,15397248,1000000000,7.0,518.9758149149643,2.99792458E8,4,117138.31807253906,3.4028234663852886E38,1.56109798E9,,,,0,,5,,1.56109798E9
Raw,1551746,505769000000,,,-1238850265230655373,0.0,11.077907287672108,,,0,13,0.0,16397,220356871355921,23,23.623313903808594,-67.69677772435878,0.8883799316966985,4,-9892.674671298977,3.4028234663852886E38,1.56109798E9,,,,0,,5,,1.56109798E9
Raw,1551746,505769000000,,,-1238850265230655373,0.0,11.077907287672108,,,0,24,0.0,16397,220356914141322,23,23.32901954650879,509.9305695310061,0.9021150285407953,4,251000.14263285825,3.4028234663852886E38,1.56109798E9,,,,1,,5,,1.56109798E9
Raw,1551746,505769000000,,,-1238850265230655373,0.0,11.077907287672108,,,0,25,0.0,16397,220356926754948,13,30.119131088256836,136.01390047564928,0.0053929840214550495,1,58254.49480843417,0.0026964920107275248,1.56109798E9,,,,0,,5,,1.56109798E9
Raw,1551746,505769000000,,,-1238850265230655373,0.0,11.077907287672108,,,0,7,0.0,16,505002934951,1000000000,15.840457916259766,475.45524453185726,2.99792458E8,2,493.44868150335407,3.4028234663852886E38,1.57542003E9,,,,0,,6,,1.57542003E9
Raw,1551747,505769000000,,,-1238850265230655373,0.0,11.077907287672108,,,0,13,0.0,18440,220370908913594,1000000000,14.350984573364258,-669.9537355004054,2.99792458E8,4,-339014.6970182984,3.4028234663852886E38,1.57542003E9,,,,0,,6,,1.57542003E9
Raw,1551747,505769000000,,,-1238850265230655373,0.0,11.077907287672108,,,0,15,0.0,19498,220370919032538,25,31.05953598022461,-395.2407041815168,0.004795596469193697,1,-91803.58721030183,0.0023977982345968485,1.57542003E9,,,,0,,6,,1.57542003E9
Raw,1551747,505769000000,,,-1238850265230655373,0.0,11.077907287672108,,,0,19,0.0,18474,220370909756380,1000000000,9.136896133422852,88.61892844663868,2.99792458E8,4,213.507980654715,3.4028234663852886E38,1.57542003E9,,,,0,,6,,1.57542003E9
Raw,1551747,505769000000,,,-1238850265230655373,0.0,11.077907287672108,,,0,21,0.0,16,505003972688,1000000000,7.0,-468.58612991442396,2.99792458E8,2,-468.0769235814822,3.4028234663852886E38,1.57542003E9,,,,0,,6,,1.57542003E9
Raw,1551747,505769000000,,,-1238850265230655373,0.0,11.077907287672108,,,0,27,0.0,18440,220370922134971,1000000000,23.692394256591797,-128.6922117235178,2.99792458E8,4,-11415.387657338317,3.4028234663852886E38,1.57542003E9,,,,0,,6,,1.57542003E9
Raw,1551748,505769000000,,,-1238850265230655373,0.0,11.077907287672108,,,0,30,0.0,18440,220370921149404,1000000000,24.995344161987305,277.8463204161244,2.99792458E8,4,25141.523276903194,3.4028234663852886E38,1.57542003E9,,,,0,,6,,1.57542003E9
Raw,1551748,505769000000,,,-1238850265230655373,0.0,11.077907287672108,,,0,13,0.0,16408,220370908913512,1000000000,7.0,-668.7650757467159,2.99792458E8,4,-409242.23904752743,3.4028234663852886E38,1.17645005E9,,,,0,,6,,1.17645005E9
Raw,1551748,505769000000,,,-1238850265230655373,0.0,11.077907287672108,,,0,15,0.0,17466,220370919032530,10,30.258411407470703,-395.2436531785498,0.007042416371405125,1,-124057.97291532056,0.0035212081857025623,1.17645005E9,,,,0,,6,,1.17645005E9
Raw,1551748,505769000000,,,-1238850265230655373,0.0,11.077907287672108,,,0,19,0.0,16408,220370909756534,1000000000,8.90601921081543,52.85208710032154,2.99792458E8,4,943.0063237183207,3.4028234663852886E38,1.17645005E9,,,,0,,6,,1.17645005E9
Raw,1551748,505769000000,,,-1238850265230655373,0.0,11.077907287672108,,,0,27,0.0,17466,220370922134992,9,29.860576629638672,-128.32393008184044,0.00737247709184885,1,-15449.030585738357,0.003686238545924425,1.17645005E9,,,,0,,6,,1.17645005E9
Raw,1551748,505769000000,,,-1238850265230655373,0.0,11.077907287672108,,,0,30,0.0,16408,220370920881630,1000000000,7.0,2456.8957721878323,2.99792458E8,4,101307.7474150084,3.4028234663852886E38,1.17645005E9,,,,1,,6,,1.17645005E9
Raw,1552775,506769000000,,,-1238850265230655537,0.0,10.94391394779127,,,0,2,0.0,16431,220371923426762,26,30.291154861450195,-103.272597890209,0.005239160731434822,1,-26273.718268710552,0.002619580365717411,1.57542003E9,,,,0,,1,,1.57542003E9
Raw,1552775,506769000000,,,-1238850265230655537,0.0,10.94391394779127,,,0,6,0.0,16431,220371920633116,38,25.72618293762207,221.97539251021612,0.7954850012134798,4,97597.51483499419,3.4028234663852886E38,1.57542003E9,,,,1,,1,,1.57542003E9
Raw,1552775,506769000000,,,-1238850265230655537,0.0,10.94391394779127,,,0,12,0.0,16397,220371930285070,21,33.09160614013672,273.9145274586481,0.004025458358228207,1,60368.29367810807,0.0020127291791141033,1.57542003E9,,,,0,,1,,1.57542003E9
Raw,1552775,506769000000,,,-1238850265230655537,0.0,10.94391394779127,,,0,14,0.0,16,3865817,1000000000,10.059988021850586,-145.92275951029308,2.99792458E8,4,-35714.3599488001,3.4028234663852886E38,1.57542003E9,,,,1,,1,,1.57542003E9
Raw,1552776,506769000000,,,-1238850265230655537,0.0,10.94391394779127,,,0,24,0.0,16431,220371922750129,25,30.857778549194336,584.0021966425702,0.004908293951302766,1,289750.54863829707,0.0024541469756513834,1.57542003E9,,,,0,,1,,1.57542003E9
Raw,1552776,506769000000,,,-1238850265230655537,0.0,10.94391394779127,,,0,25,0.0,16431,220371931395887,24,31.653728485107422,-150.23927952640952,0.004478504881262779,1,-33478.9432448289,0.0022392524406313896,1.57542003E9,,,,0,,1,,1.57542003E9
Raw,1552777,506769000000,,,-1238850265230655537,0.0,10.94391394779127,,,0,29,0.0,16431,220371929098754,25,30.860475540161133,-507.44796931542805,0.5625268843038138,4,-268007.6224988316,3.4028234663852886E38,1.57542003E9,,,,0,,1,,1.57542003E9
Raw,1552777,506769000000,,,-1238850265230655537,0.0,10.94391394779127,,,0,31,0.0,16,993744,1000000000,10.50177001953125,-653.8670886812911,2.99792458E8,4,-331539.5754012638,3.4028234663852886E38,1.57542003E9,,,,1,,1,,1.57542003E9
Raw,1552777,506769000000,,,-1238850265230655537,0.0,10.94391394779127,,,0,32,0.0,36,3924731688,1000000000,12.74488639831543,118.60405169057572,2.99792458E8,4,1666.6785943975779,3.4028234663852886E38,1.57542003E9,,,,0,,1,,1.57542003E9
Raw,1552777,506769000000,,,-1238850265230655537,0.0,10.94391394779127,,,0,6,0.0,16409,220371920633459,102,18.59783172607422,221.14435997282044,1.1160389588573443,4,117165.27375264597,3.4028234663852886E38,1.17645005E9,,,,1,,1,,1.17645005E9
Raw,1552777,506769000000,,,-1238850265230655537,0.0,10.94391394779127,,,0,24,0.0,16409,220371922750103,9,30.181194305419922,583.9959537940449,0.007105303928256035,1,355530.4464606099,0.0035526519641280174,1.17645005E9,,,,0,,1,,1.17645005E9
Raw,1552778,506769000000,,,-1238850265230655537,0.0,10.94391394779127,,,0,25,0.0,16409,220371931395883,9,31.376014709472656,-150.2237034965583,0.006192152388393879,1,-39903.86729746393,0.0030960761941969395,1.17645005E9,,,,0,,1,,1.17645005E9
Raw,1552778,506769000000,,,-1238850265230655537,0.0,10.94391394779127,,,0,10,0.0,32995,58353934036447,51,30.89930534362793,135.4373022778309,0.004815670661628246,1,45272.93712297308,0.002407835330814123,1.59806246E9,,,,0,,3,,1.59806246E9
Raw,1552778,506769000000,,,-1238850265230655537,0.0,10.94391394779127,,,0,2,0.0,99,1922603319,217,13.105867385864258,-54.677194126503906,299.7929343974881,4,-21137.03285597193,3.4028234663852886E38,1.59975002E9,,,,1,,3,,1.59975002E9
Raw,1552778,506769000000,,,-1238850265230655537,0.0,10.94391394779127,,,0,9,0.0,32995,58353924335042,63,28.252370834350586,549.2023332050885,0.0065198843367397785,1,271550.90175816935,0.0032599421683698893,1.60087501E9,,,,0,,3,,1.60087501E9
Raw,1552779,506769000000,,,-1238850265230655537,0.0,10.94391394779127,,,0,99,0.0,99,1919596839,156,17.102214813232422,-729.918409506638,1.1831087067179782,4,-331467.9404240157,3.4028234663852886E38,1.60143744E9,,,,0,,3,,1.60143744E9
